id,nome,via,civico,Latitude,Longitude,stelle,totalePostiLetto,TOTroom,2room,2room_1,3room,Email,Tel,Website,municipio
2,163 Boutique Hotel,Via Nazionale,163,41.8969772,12.4872871,1,13,7,2,4,1,info@163boutiquehotel.com,685386444,,1
3,Hotel 2 Mari,Via Silicella,10,41.8650091,12.5983985,3,36,20,4,16,,,,,6
4,69 Suite Boutique Hotel,Via Nazionale,69,41.8992813,12.4912527,2,19,7,2,1,2,iolematilde@gmail.com,3332461025,,1
5,939 Hotel,Via del Clementino,94,41.903117,12.4754549,3,24,16,10,4,2,hotel939@hotmail.com,668300312,,1
6,Hotel Aberdeen,Via Firenze,48,41.9026249,12.4939786,3,69,37,10,22,5,,,,1
7,Abitart Hotel,Via Pellegrino Matteucci,10,41.8719632,12.4806735,4,148,65,,53,6,,,,8
8,Aca Hotel Viminale,Via Palermo,36,41.899602,12.492923,3,46,23,2,19,2,939srl@pec.it,3939249008,,1
9,Hotel Accademia,Piazza dell'Accademia di San Luca,75,41.9018066,12.4838041,3,167,74,13,34,23,,,,1
10,Adï¿½sso Hotel,Via Guido Mazzoni,18,41.910118,12.5291194,4,170,83,,80,2,info@adessohotel.it,637350276,,2
11,Hotel Adriano,Via di Pallacorda,2,41.902403,12.475703,3,191,80,6,51,9,,,,1
12,Adrianus Hotel,Via di Tor Millina,35,41.8991399,12.4713339,2,14,7,,7,,hadrianussrl@gmail.com,3477563616,,1
13,Hotel Adriatic,Via Giovanni Vitelleschi,25,41.9043902,12.4622868,2,63,41,19,22,,,,,1
14,Hotel Al Sanpietrino,Via Giovanni Bettolo,43,41.9119083,12.4564414,2,16,8,,5,3,,,,1
15,Al Viminale Hill Inn Hotel,Via del Viminale,38,41.9002489,12.4959438,2,18,9,,9,,,,,1
16,Hotel Invictus,Via Quintino Sella,15,41.9070668,12.4966683,2,24,13,2,11,,sandelsrls@gmail.com,3939985438,,1
17,Hotel Abruzzi,Piazza della Rotonda,69,41.8993916,12.4771627,3,44,19,2,10,6,,,,1
18,Hotel Alessandrino,Via Clemente Alessandrino,9,41.8947959,12.4523841,3,62,26,3,18,1,amministrazione@hotelalessandrino.com,639674144,,13
19,Hotel Casali,Via Giovanni Amendola,95,41.8992831,12.5005591,2,36,20,5,14,1,0,0,,1
20,Hotel Colonna Suite del Parlamento,Via della Colonna Antonina,41,41.9003904,12.4792049,2,16,7,1,3,3,info@colonnasuite.com,669208008,,1
21,Hotel Concordia,Via di Capo Le Case,14,41.9038621,12.4849143,3,48,24,1,22,1,info@concordiahotel.it,66791953,https://www.concordiahotel.it/it/,1
22,Hotel Del Senato,Piazza della Rotonda,73,41.8991751,12.4773018,3,132,56,4,34,12,,,,1
23,Hotel della Torre Argentina,Corso Vittorio Emanuele II,102,41.896172,12.475935,3,117,59,10,42,5,scorteggiani@hotmail.com,66833886,,1
24,Hotel Delle Regioni,Via Zucchelli,1 C,41.9043511,12.4865051,3,21,11,1,10,,fpdarc@gmail.com,3384990507,,1
25,Hotel Demetra,Via del Viminale,8,41.900698,12.496765,4,60,28,4,16,8,amministrazionesharkei@gmail.com,688373410,,1
26,Hotel Diffuso Condotti Palace,Via Mario De Fiori,59 B,41.9063259,12.4808069,1,68,32,,29,2,,,,1
27,Hotel Domus Rea,Via Calatafimi,31,41.9049481,12.5003664,3,42,24,6,18,,info@domusmearoma.com,6486496,,1
28,Hotel Farini,Via Farini,52,41.8985425,12.4994893,1,12,7,3,3,1,risinter1@gmail.com,3333317821,,1
29,Hotel Felice,Via Tiburtina,30,41.8973728,12.5129983,2,33,18,3,15,,info@hotelfelice.com,64453347,www.hotelfelice.com,2
30,Hotel Fenicia,Via Milazzo,20,41.9021999,12.5045539,2,22,11,2,7,2,shikdargroup@pec.it,6490342,,1
31,Hotel Floris,Via Nazionale,251,41.9018069,12.4945889,3,59,26,2,16,7,info@florishotel.it,64824824,www.florishotel.it,1
32,Hotel Gabriele,Via Principe Amedeo,76,41.898959,12.5002938,1,17,8,2,3,3,http://www.hotelgabrieleroma.com/,64884434,http://www.hotelgabrieleroma.com/,1
33,Hotel Grantorino Suite,Via Torino,150,41.8999745,12.4968908,1,15,8,2,5,1,,,,1
34,Hotel Aphrodite,Via Marsala,90,41.9013867,12.5041419,4,117,62,16,38,7,info@hotelaphrodite.com,688376120,www.hotelaphrodite.com,1
35,Hotel Dina,Via Principe Amedeo,62,41.8992162,12.499877,3,69,30,3,18,6,info@hoteldina.it,64818885,www.hoteldina.it,1
36,Hotel King,Via Sistina,131,41.9041127,12.4870591,3,130,72,21,44,7,info@hotelking.net,64880878,http://www.hotelkingroma.com,1
37,Hotel La Reggia Dei Principi,Via del Viminale,38,41.9002489,12.4959438,2,13,7,1,6,,info@residenzadeiprincipi.com,3203665381,www.residenzadeiprincipi.com,1
38,Hotel Magica Luna,Via Calabria,17,41.9099516,12.4973164,1,19,10,1,9,,m.marinelli@magicalunahotel.com,694326569,,1
39,Marcella Royal Hotel,Via Flavia,104,41.9078317,12.4980911,4,162,87,23,55,7,direzione@mercallaroyalhotel.com,642014591,https://www.marcellaroyalhotel.com,1
40,Hotel Millerose,Via Daniele Manin,58,41.8989442,12.4993101,1,20,10,1,8,1,,,,1
41,Hotel Monteverde e Austria,Via di Monte Verde,86,41.8712506,12.4492112,3,55,28,1,27,,info@hotelmonteverderoma.it,658230000,,12
42,Hotel Nazionale,Piazza di Monte Citorio,131,41.9010178,12.4778738,4,293,103,3,40,30,info@hotelnazionale.it,6695001,,1
43,Hotel Ottocento,Via dei Cappuccini,17,41.9041721,12.4875,4,60,33,7,25,1,info@albergottocento.it,642011900,,1
44,Hotel Palazzo Caruso,Piazza Barberini,5,41.9037593,12.4880986,4,24,12,,12,,info@hotelpalazzocaruso.it,39066833379,,1
45,Hotel Ponte Sisto,Via dei Pettinari,64,41.8932457,12.4718032,4,245,103,2,68,25,info@hotelpontesisto.it,66863100,www.hotelpontesisto.it,1
46,Hotel Relais Manzoni,Via Carlo Emanuele I,14,41.8910181,12.5096265,3,14,11,8,3,,info@relaismanzoni.it,685301113,www.relaismanzoni.it,1
47,Hotel Roma Palace,Via Principe Amedeo,67,41.8988202,12.5000552,1,22,10,1,6,3,romapalace67@gmail.com,3896494203,,1
48,Hotel Saldel Giubileo,Via Quintino Sella,15,41.9070668,12.4966683,2,21,13,5,8,,sandelsrls@gmail.com,3939985438,,1
49,Hotel san valentino,Via Ezio,55,41.9105885,12.4654565,3,61,38,15,23,,aldocirulli@gmail.com,3939249008,,1
50,Hotel Scott House,Via Gioberti,30,41.8988934,12.500825,3,88,34,6,3,24,amministrazionesharkei@gmail.com,688373410,,1
51,Hotel Stadler Due,Via Magenta,13,41.9033759,12.5024959,1,21,10,2,5,3,hotelstadler2@gmail.com,64466785,,1
52,Alex Square Hotel,Via Palestro,88,41.9033809,12.5065237,3,30,15,1,13,1,hotelalex.sq88@gmail.com,3248321035,,1
53,Hotel Alexis,Via Gaeta,29,41.9045935,12.5004452,1,19,12,5,7,,,,,1
54,All Time Relais & Sport Hotel,Via Domenico Jachino,181,41.8093745,12.4467402,4,129,68,7,61,,,,,9
55,Hotel Alpi,Via Castelfidardo,84,41.9051851,12.5026749,4,99,48,4,37,7,,,,1
56,Hotel Amalfi,Via Merulana,278,41.8963462,12.4992317,3,42,22,6,12,4,,,,1
57,Amico Hotel,Piazzale Prenestino,15,41.8913857,12.5268446,2,66,26,3,6,17,amicohotelroma@gmail.com,67022930,www.hotelfriend.it,5
58,Hotel Anahi,Via Della Penna,65,41.9094851,12.474671,2,25,17,9,8,,,,,1
59,Hotel Angel,Via Marianna Dionigi,43,41.9059535,12.4715743,2,24,11,1,7,3,,,,1
60,Hotel Antica Locanda Palmieri,Via di Grotta Perfetta,551,41.8371151,12.5104219,3,33,25,17,8,,,,,8
61,Hotel Antico Palazzo Rospigliosi,Via Liberiana,21,41.8973989,12.4976494,4,85,39,6,21,11,,,,1
62,Aparthotel Colombo Roma,Via Cristoforo Colombo,112,41.8657326,12.4962137,4,273,105,,48,55,aparthotelcolomboroma@bzarhotel.it,698376099,,8
63,Apollo Boutique Hotel,Via Fornovo,2,41.9124328,12.4687729,4,25,14,3,11,,apolloboutiquehotel@gmail.com,639745319,www.apolloboutiquehotel.com,1
64,Appia Park Hotel,Via Appia Nuova,934,41.8391045,12.5507334,4,120,60,,60,,,,,7
65,Hotel Ara Pacis,Via Vittoria Colonna,11,41.9051874,12.4724411,3,71,37,15,12,8,,,,1
66,Hotel Arco di Traventino,Via Valgia Silvilla,71,41.8681409,12.5357858,2,25,19,13,6,,,,,7
67,Ardeatina Park Hotel,Via Vittore Ghiliani,143,41.7916059,12.5299649,4,208,102,,98,4,,,,9
68,Hotel Argentina,Via Cavour,47,41.8995596,12.4981896,3,25,15,6,8,1,,,,1
69,Hotel Ariston,Via Filippo Turati,16,41.8989672,12.5012378,4,167,82,10,60,11,robertodirienzo7@gmail.com,3464993570,,1
70,Hotel Art Noba,Via Nomentana,543,41.9315429,12.5274076,3,137,72,22,38,9,info@arthotelnoba.com,68622531,,3
71,Hotel Artemide ,Via Nazionale,22,41.9008196,12.4936532,4,198,91,4,67,20,,,,1
72,Hotel Artis,Via Roberto Fancelli,3,41.86657,12.57572,4,140,70,,70,,hoteldiromasrl@gmail.com,623267789,www.hotelartisroma.com,7
73,Hotel Artorius,Via del Boschetto,13,41.8971481,12.490305,2,20,10,2,6,2,,,,1
74,Hotel Assisi,Via dei Mille,27 A,41.9022693,12.5049111,3,35,18,4,11,3,,,,1
75,Hotel Ateneo Garden Palace,Piazza dei Siculi,9,41.898969,12.511435,4,111,55,10,39,2,,,,2
76,Hotel Athena,Via Ercole Pasquali,3,41.9080365,12.5194944,3,52,27,4,21,2,,,,2
77,Hotel Atlante Star,Via Giovanni Vitelleschi,34,41.9048927,12.4619055,4,101,59,25,26,8,,,,1
78,Hotel Aurora Garden,Via Emanuele Ciaceri,12,41.9468318,12.5697401,3,64,43,22,21,,info@hotelauroragarden.net,64116673,,4
79,Hotel Barberini,Via Rasella,3 5,41.9026231,12.4891402,4,73,35,5,26,,,,,1
80,Barocco Hotel,Via della Purificazione,4,41.9039253,12.488065,4,78,37,7,23,3,info@hotelbarocco.com,64872001,https://www.hotelbarocco.com,1
81,Basilica Hotel,Via Cavour,85 A,41.8978618,12.4963083,3,118,54,10,24,20,info@basilicahotel.it,647824414,,1
82,Hotel Beauty,Via Napoleone III,35,41.8968393,12.5017118,1,13,8,3,5,,,,,1
83,Hotel Bel Poggio,Via di Settebagni,733,41.9811866,12.5380681,2,25,13,1,12,,,,,3
84,Hotel Bella Cenci A,Via del Boschetto della Bella Cenci,32,41.75369,12.54024,2,24,14,6,6,2,bellacenci@yahoo.it,67136163,,9
85,Hotel Blla Cenci B,Via del Boschetto della Bella Cenci,34,41.7532389,12.5407937,2,24,11,,9,2,bellacenci@yahoo.it,67136163,,9
86,Hotel Bellavista,Piazzale Magellano,16,41.7255491,12.2900929,3,24,13,2,11,,info@hotelostia.it,65624393,www.rivabellahotels.it,10
87,Hotel Benjamin,Via Boezio,31,41.9064881,12.4633912,1,24,15,6,9,,,,,1
88,Hotel Best Roma,Via di Porta Maggiore,49,41.8927945,12.5115022,4,44,27,12,13,2,info@hotelbestroma.com,677076928,,1
89,Hotel bixio,Via Bixio,46,41.8934102,12.5085419,1,25,12,,11,1,,,,1
90,Black Hotel,Via Raffaello Sardiello,18,41.8887857,12.4031871,4,133,68,5,61,2,info@blackhotel.it,666410148,www.blackhotel.it,13
91,Hotel Bloom Roma,Via Giuseppe Missori,19,41.8955538,12.4580961,3,58,27,3,18,5,booking@bloomhotelroma.com,66635201,www.bloomhotelroma.com,13
92,Hotel Bolognese,Via Palestro,15,41.9069939,12.5014607,2,25,14,5,7,2,,,,1
93,Borghese Contemporary Hotel,Largo della Fontanella di Borghese,84,41.9035775,12.4767865,4,49,23,3,16,2,info@borghesecontemporaryhotel.com,648904040,www.borghesecontemporaryhotel.com,1
94,Hotel Bramante,Vicolo delle Palline,25,41.9031913,12.4603732,2,45,32,16,8,4,,,,1
95,Hotel Buenos Aires,Via Clitunno,9,41.9211892,12.5022224,3,97,53,12,38,3,,,,2
96,C10 Boutique Hotel,Piazza Benedetto Cairoli,9,41.8940657,12.4745814,3,14,7,,7,,info@thespanishsuite.com,63225064,,1
97,Hotel Cambridge ,Via Palestro,87,41.903402,12.505986,3,86,45,10,29,6,,,,1
98,Hotel Camelia,Via Goito,36,41.9058301,12.5008611,3,73,40,10,27,3,,,,1
99,Cannella Hotel,Via Salaria,957,41.9657039,12.5060084,1,18,14,10,4,,everynightsrl@legalmail.it,668588316,,3
100,Hotel Canova,Via Urbana,9,41.8975585,12.4954281,3,42,21,2,18,,,,,1
101,Hotel Capri,Via Magenta,13,41.9033759,12.5024959,1,14,8,3,4,1,hotelcapriroma@hotmail.com,6491367,,1
102,Hotel Caracciolo,Via Cairoli,86,41.8952113,12.508598,3,25,14,3,11,,,,,1
103,Hotel Cardinal St. Peter,Via Leone Dehon,71,41.8914586,12.4362222,4,592,137,5,112,13,info@cardinahotelrome.com,6322252,www.cardinalhotelrome,13
104,Hotel Carlo Alberto,Via Carlo Alberto,43,41.8960966,12.5012367,1,14,11,8,3,,,,,1
105,Csa Couper Hotel,Via dell'Umiltà,46,41.899094,12.481367,3,29,17,7,8,2,amministrazione@thecouper.it,3513049433,,1
106,Hotel Casa Tra Noi,Via di Monte del Gallo,113,41.894092,12.4526123,3,406,201,36,133,24,,,,13
107,Hotel Casarola,Via di Trigoria,57,41.7488727,12.4665977,1,21,15,9,6,,,,,9
108,Hotel Castello della Castelluccia,Via Carlo Cavina,,41.9807747,12.3963329,4,56,24,2,13,8,eventi@lacastelluccia.com,630207041,,14
109,Hotel Cavour,Via Cavour,47,41.8995596,12.4981896,2,80,37,9,19,4,,,,1
110,CC Palace Hotel,Via delle Quattro Fontane,37,41.9009346,12.4927171,4,69,37,5,32,,centralcityroma@gmail.com,3335369120,,1
111,Central Rome Hotel 6,Via Giovanni Amendola,77,41.8996164,12.5002273,1,25,12,4,4,3,malinghisrls.hotel@gmail.com,3923520981,,1
112,Hotel Cervia,Via Palestro,55,41.904487,12.5045712,1,81,35,8,13,9,,,,1
113,Hotel Champagne Garden,Via Vittorio Bachelet,3,41.9039754,12.504037,4,35,19,3,16,,,,,1
114,Hotel Champagne Palace,Via Principe Amedeo,82,41.8987812,12.5007886,4,153,78,9,64,4,,,,1
115,Charme spagna boutique hotel,Via della Mercede,37,41.9033557,12.4824533,3,23,11,2,7,1,cdfhotellerie@legalmail.it,3355370423,,1
116,Hotel Charter,Via Gioberti,30,41.8988934,12.500825,2,25,14,3,11,,,,,1
117,Chic & Town Hotel,Via dei Due Macelli,31,41.9034032,12.4844812,1,19,10,2,7,1,chicandtown@gmail.com,669190491,www.chictown.it,1
118,Hotel Cilicia,Via Cilicia,5,41.8735805,12.5060249,3,112,62,14,47,,info@hotelcilicia.com,67005554,https://www.hotelcilicia.com,7
119,Hotel Cinemusic,Via Tuscolana,128,41.881257,12.5185548,4,49,29,10,18,1,,,,7
120,Hotel Cisterna Trastevere,Via della Cisterna,7,41.88857,12.4714748,2,43,19,1,12,6,,,,1
121,Hotel Clodio,Via di Santa Lucia,10,41.9198539,12.4567523,4,196,114,32,82,,info@hotelclodio.it,63721122,www.hotelclodio.it,1
122,Cloud Nine Hotel,Via Cola di Rienzo,243,41.9074132,12.4622053,1,17,11,5,6,,info@cloud9rom.com,3920283595,www.cloud9roma.com,1
123,Colonna Palace Hotel,Piazza di Monte Citorio,12,41.9006398,12.4790291,4,182,104,43,45,15,colonnapalace@itihotels.it,6675191,,1
124,Hotel Colonne D'ercole,Via Ostiense,1411,41.795953,12.4043661,1,14,12,10,2,,,,,9
125,Hotel Colors,Via Boezio,31,41.9064881,12.4633912,1,12,8,4,4,,,,,1
126,Hotel Colosseum,Via Sforza,8,41.8960779,12.4960262,3,97,46,3,35,8,,,,1
127,Hotel Colombia,Via del Viminale,15,41.9008676,12.4965965,3,98,45,2,33,10,,,,1
128,Hotel Columbus,Via della Conciliazione,33,41.9021177,12.4609569,4,186,92,23,44,25,,,,1
129,Hotel Consul,Via Aurelia,727,41.8918887,12.414046,3,126,59,21,13,21,,,,13
130,Hotel Contilia,Via Principe Amedeo,79,41.8983611,12.5007886,3,132,61,7,37,17,,,,1
131,Coronari Palace Hotel,Via dei Tre Archi,13,41.9005404,12.4718913,3,31,16,2,13,1,valerioleopoldoceccarelli@gmail.com,3397290595,,1
132,Hotel Cortina,Via Nazionale,18,41.9009454,12.4937967,3,25,14,5,7,2,,,,1
133,Hotel Cressy,Via Volturno,27,41.9046237,12.4994027,1,25,10,2,2,5,,,,1
134,Hotel Croce di Malta,Via Borgognona,28,41.9047736,12.4812964,2,42,25,10,14,,,,,1
135,Crosti Hotel,Via Castelfidardo,54,41.9062733,12.5014159,3,24,14,4,10,,,,,1
136,d-o-m Hotel,Via Giulia,131,41.8974309,12.467203,5,44,23,2,21,,info@domhotelroma.com,66832144,,1
137,Daniel's Hotel,Via Frattina,107,41.9041327,12.4806287,4,25,14,3,11,,info@danielshotel.it,669380203,,1
138,Hotel Dei Consoli,Via Varrone,2,41.9064732,12.4601419,4,59,28,2,21,5,,,,1
139,Hotel Dei Mellini,Via Muzio Clementi,81,41.9073804,12.4724561,4,178,80,4,58,14,,,,1
140,Hotel Dei Mille,Via dei Mille,7 B,41.9036537,12.5032233,3,71,41,15,22,4,info@hoteldeimille.it,6491313,,1
141,Hotel Dei Quiriti,Via Germanico,198,41.9091417,12.463005,1,16,10,4,6,,quiriti@tiscali.it,636005389,,1
142,Hotel Delle Regioni,Via Zucchelli,1,41.9043511,12.4865051,3,21,11,1,10,,,,,1
143,Hotel Delle Rose,Via Principe Amedeo,62,41.8992162,12.499877,1,16,9,2,7,,,,,1
144,Dem Hotel,Via Venezia,15,41.8999622,12.4930154,2,13,8,3,5,,alfi1971@hotmail.it,3389196920,,1
145,Hotel Demetra Capitolina,Via Principe Amedeo,58,41.8993039,12.4998442,2,25,13,1,12,,,,,1
146,Des Epoques Hotel,Via Nomentana,29,41.9103506,12.5024447,3,32,22,12,10,,info@desepoqueshotel.com,644238361,www.desepoqueshotel.com,2
147,Hotel Desiderio,Via Della Pineta Sacchetti,225,41.9296007,12.4270653,3,50,24,,23,,,,,14
148,divina luxury Hotel s,Via Aurora,29,41.9071468,12.4878389,4,73,31,,21,9,fernando@lacertosa.it,3389615681,,1
149,Hotel Doge,Via dei Due Macelli,106,41.9034057,12.4851532,2,25,12,1,9,2,,,,1
150,Hotel Dolomiti,Via San Martino della Battaglia,11,41.9053853,12.5045229,3,48,22,4,12,4,,,,1
151,Domidea Hotel,Via Raffaele Costi,17,41.9089752,12.5896853,4,216,85,9,48,1,info@hoteldomidea.com,697659073,,5
152,Hotel Domus Aurea ,Via Volturno,32,41.904421,12.4999941,3,87,49,11,38,,,,,1
153,Hotel Domus Aventina,Via di Santa Prisca,11 B,41.8814947,12.4841467,3,54,26,4,16,6,clarionimanuel@yahoo.it,3662478279,,1
154,Domus Colosseo Hotel,Via Marco Aurelio,37,41.8880798,12.4955615,3,24,11,1,8,1,alexxandraferrara@gmail.com,3273827771,,1
155,Doria Palace Boutique Hotel,Via Merulana,4,41.8966123,12.499509,4,24,14,4,10,,info@doriapalace.com,64465888,http://www.doriapalace.com/it/,1
156,Hotel Duca D'alba,Via Leonina,14,41.8947796,12.4918283,4,67,31,5,18,6,info@hotelducadalba.com,6484471,,1
157,Hotel Ducale,Via Achille Grandi,2,41.8924238,12.5129598,2,11,7,3,4,,htlducale@hotmail.com,670300026,www.hotelducalerome.com,1
158,Eccelso Hotel,Via Catone,3,41.9067928,12.4591874,3,23,12,1,11,,info@eccelsohotel.com,639751626,,1
159,Hotel El Patio,Via dell'Airone,8,41.8661914,12.5956976,1,14,7,1,5,1,,,,6
160,Hotel Embassy,Via Antonio Salandra,6,41.9056233,12.4954563,3,82,40,9,18,11,,,,1
161,Hotel Emmaus,Via delle Fornaci,23,41.8993047,12.4563925,3,76,28,3,6,16,,,,13
162,Hotel Emona Aquaeductus,Via Statilia,23,41.8909559,12.5125279,4,52,24,3,15,5,,,,1
163,Hotel Ergife Palace,Via Aurelia,619,41.8949988,12.4177209,4,999,705,415,289,,info@ergifepalacehotel.com,66644,,13
164,Esposizione Boutique Hotel,Via Nazionale,66,41.899339,12.491388,3,17,8,2,3,3,iolematilde@gmail.com,3332461025,,1
165,Esposizione Palace Hotel,Via Nazionale,66,41.899339,12.491388,1,19,9,1,6,2,iolematilde@gmail.com,3332461025,,1
166,Hotel Esquilino,Piazza dell'Esquilino,29,41.8978231,12.4969563,2,25,12,,11,1,,,,1
167,Hotel Euro Quiris,Via dei Mille,64,41.9021198,12.5054931,1,17,9,3,4,2,,,,1
168,Hotel Eurogarden,Salita di Castel Giubileo,197,41.989812,12.5066357,3,116,48,,48,,info@eurogarden.net,68852751,www.eurogarden.net,3
169,Hotel Eurom,Via Giovanni Gutenberg,39,41.7708875,12.48475,3,24,22,20,2,,euromhotel@tiscali.it,65061735,,9
170,Hotel Europergola,Vicolo del Colle della Strega,32,41.8161111,12.4911111,2,24,18,12,6,,eurpergolasrl@yahoo.it,65010831,,9
171,Hotel Everest,Via Cavour,47,41.8995596,12.4981896,2,23,10,3,3,2,,,,1
172,Hotel Everest Inn Rome Srl,Via Nazionale,243,41.901484,12.4940831,2,24,13,5,5,3,info@everestinnrome.it,645471449,www.everestinnrome.it,1
173,Hotel Excel Roma Montemario,Via degli Scolopi,31,41.9326304,12.4336466,4,204,111,35,63,9,info.excelmontemario@laminhotels.com,635058043,www.laminhotels.com,14
174,F.D.S. Hotel,Via Torino,123,41.9016315,12.4955914,2,23,13,5,6,2,info@dharmahotel.it,64814085,,1
175,Favilla Hotel Di Charme,Via Salaria,1497,42.0095405,12.5191335,3,47,26,5,21,,info@favillahotel.com,681152875,www.favillahotel.com,3
176,Hotel Ferrarese,Via Principe Amedeo,76,41.898959,12.5002938,2,63,24,2,9,9,ad.roma2021@gmail.com,64743410,,1
177,Hotel Fiorenza,Via dei Mille,64,41.9021198,12.5054931,1,25,12,1,9,2,,,,1
178,Hotel Firenze,Via dei Due Macelli,106,41.9034057,12.4851532,2,25,16,7,9,,,,,1
179,Flower Garden Hotel,Via del Viminale,7,41.9010816,12.4968819,3,62,28,3,19,4,flowergarden@blueglobehotels.com,647824096,,1
180,Fly Deco' Hotel,Lungomare Paolo Toscanelli,52 A-B,41.7284031,12.2810861,4,59,31,4,26,1,manager@flyhotelrome.com,699588099,www.flyhotelrome.com,10
181,Hotel Fontana,Piazza di Trevi,96,41.9006339,12.4832717,3,52,25,4,15,6,,,,1
182,Hotel Fortyseven,Via Luigi Petroselli,47,41.8897311,12.4813454,4,136,60,,46,12,,,,1
183,Hotel Forum,Via Tor de' Conti,25,41.8939108,12.4876358,4,164,78,20,34,20,,,,1
184,Hotel Fragrance St. Peter,Via di Monte del Gallo,36,41.8966448,12.451627,3,62,32,7,20,5,booking@fragrancestpeter.it,687725300,www.fragrancestpeter.it,13
185,Hotel Franklin,Via Rodi,29,41.9127213,12.4532572,3,40,22,4,18,,melodysrl2017@pec.it,639746236,,1
186,G55 Design Hotel,Via del Gesù,55,41.8961808,12.4787721,3,24,10,,7,2,info@g55designhotel.com,63225064,,1
187,Hotel Galileo,Via Palestro,33,41.9058213,12.5030431,3,89,39,2,24,13,,,,1
188,Gallery Hotel,Via Barberini,50,41.9045684,12.4919999,1,17,8,,7,1,info@galleryhotel.it,3346844363,,1
189,Hotel Galli,Via Milazzo,20,41.9021999,12.5045539,2,25,12,2,8,1,,,,1
190,Gemelli Hotel,Via Della Pineta Sacchetti,229 F,41.9303024,12.426371,3,39,22,5,17,,info@gemellihotel.com,635500452,www.gemellihotel.com,14
191,Hotel Geo,Circonvallazione Casilina,41,41.8901763,12.5279793,3,38,20,5,12,3,ammgeohotel@gmail.com,627801029,,5
192,Hotel Giamaica,Via Magenta,13,41.9033759,12.5024959,1,17,9,2,6,1,,,,1
193,Hotel Giglio Dell'opera,Via Principe Amedeo,14,41.9001455,12.4984589,3,151,61,6,25,26,hotelgigliodelloperapalacesrl@gmail.com,6484401,www.gigliodellopera.it,1
194,Ginevra Palace Hotel,Via San Giovanni della Croce,35,41.8998764,12.4087091,3,99,66,33,33,,amministrazione@ginevrapalacehotel.it,683393163,,13
195,Gioberti Art Hotel,Via Gioberti,23,41.8994403,12.500933,4,145,68,13,37,14,,,,1
196,Hotel Giorgina,Via Principe Amedeo,67,41.8988202,12.5000552,2,95,36,5,16,6,,,,1
197,Hotel Giugiu,Via del Viminale,8,41.900698,12.496765,1,24,10,1,5,3,,,,1
198,Hotel Giulio Cesare,Via degli Scipioni,287,41.9115739,12.4695646,4,145,76,16,51,9,,,,1
199,Giuturna Boutique Hotel,Largo del Tritone,153,41.9024229,12.4855655,3,18,9,,9,,amministrazione@giuturnaboutiquehotel.com,662289629,,1
200,Hotel Gloria,Via Gioberti,30,41.8988934,12.500825,1,17,10,3,7,,,,,1
201,Hotel Golden,Via Marche,84,41.9092964,12.4899706,2,24,13,4,7,2,,,,1
202,Gp Hotel,Via Giorgio Perlasca,50,41.9003614,12.5702781,4,203,86,,55,31,manager@exromast.com,642986080,,5
203,Hotel Grand Colony,Via Monterosi,18,41.9490538,12.472563,3,114,72,30,42,,hotelcolonyproperty@gmail.com,636301843,,15
204,Hotel Grand Tiberio,Via Lattanzio,51,41.9127428,12.4392671,4,189,85,6,54,25,,,,14
205,Grand Hotel Via Veneto,Via Vittorio Veneto,155,41.908473,12.4897674,5,210,121,32,89,,reservations@ghvv.it,3906487881,www.ghvv.it,1
206,Green Hotel,Viale Regina Margherita,255,41.9116679,12.5086069,2,15,8,3,3,2,tarste62@yahoo.it,644202376,,2
207,Hotel Grifo,Via del Boschetto,144,41.8960524,12.4907955,2,29,19,11,6,2,angelo@hotelgrifo.com,3663642651,,1
208,Harry's Bar Trevi Hotel & Restaurant,Via di San Vincenzo,10,41.9002976,12.4838988,5,25,13,1,12,,sm.harrystrevi@cremonini.com,669940704,https://hotelharrysbartrevi.com/,1
209,Hearth Hotel,Via Santamaura,2,41.9074828,12.4543373,3,43,22,4,16,1,,,,1
210,Hotel Hiberia,Via Ventiquattro Maggio,7,41.8971916,12.486874,3,100,40,8,18,6,,,,1
211,Hotel Histoire Romantique,Via Principe Amedeo,77,41.8983611,12.5007886,3,24,14,4,10,,,,,1
212,Hotel Hollywood Stella Elsa,Via Principe Amedeo,79,41.8983611,12.5007886,2,25,17,9,8,,,,,1
213,Hotel 325 Tor Vergata,Via di Tor Vergata,325,41.8360305,12.6218453,3,45,20,,16,3,,,,7
214,Hotel 4 Coronati,Via di San Giovanni in Laterano,262,41.8874569,12.5019983,2,18,9,1,7,1,hotel4coronati@gmail.com,690285398,www.4coronati.it,1
215,Hotel 53,Via di San Basilio,53,41.9048702,12.489801,3,25,14,3,11,,info@lhotel53.com,642014708,www.lhotel53.com,1
216,Hotel Acropoli,Via Principe Amedeo,63,41.8988201,12.5000537,2,132,52,14,11,12,,,,1
217,Hotel Ad Suites Nazionale,Via Nazionale,251,41.9018069,12.4945889,3,18,8,1,4,3,info@ad-suites.com,686357604,,1
218,Hotel Ad Suites Nazionale,Via Nazionale,251,41.9018069,12.4945889,3,18,8,1,4,3,info@ad-suites.com,686357604,,1
219,Hotel Agora',Via Marsala,80,41.9015178,12.5039717,3,90,22,1,20,1,info@hotelagoraroma.com,644361278,http://hotelagoraroma.com,1
220,Hotel Al Casaletto,Via di Settecamini,1,41.9381201,12.6209419,2,23,19,15,4,,casaletto7caminisrl@pec.it,623484624,www.alcasaletto.it,4
221,Hotel Alba,Viale di Torre Maura,81,41.86121,12.59321,4,156,69,18,18,31,booking@hotelalbaroma.com,690282887,http://hotelalbaroma.com,6
222,Hotel Albani,Via Adda,41,41.9154029,12.4982791,4,325,154,12,128,,,,,2
223,Hotel Alius,Via Nazionale,243,41.901484,12.4940831,1,19,10,1,9,,valvo1947@tiscali.it,670453613,,1
224,Hotel Anacapri,Via Magenta,13,41.9033759,12.5024959,2,15,7,1,4,2,hrcsrl1@legalmail.it,644241938,,1
225,Hotel Anfiteatro Flavio,Via Dei Serpenti,130,41.8958806,12.4905602,3,29,17,8,6,3,info@anfiteatroflavio.com,64740704,,1
226,Hotel Anglo Americano,Via delle Quattro Fontane,12,41.9030696,12.489073,4,270,114,9,62,36,info@hotelangloamericano.it,6472941,,1
227,Hotel Aniene,Viale Tirreno,74 B,41.9379596,12.5314834,3,57,33,9,24,,info@hotelseiler.it,6485550,,3
228,Hotel Antica Locanda,Via del Boschetto,83,41.8962269,12.4908402,3,25,12,1,9,2,germani77@hotmail.com,6484894,www.anticalocandaroma.it,1
229,Hotel Antico Acquedotto,Via di Villa Serventi,9,41.8853238,12.5306767,3,39,32,25,7,,info@hotelanticoacquedotto.it,627801410,www.hotelanticoacquedotto.it,5
230,Hotel Arcangelo,Via Boezio,15,41.9065605,12.4649736,3,52,33,14,19,,info@hotelarcangeloroma.it,66874143,,1
231,Hotel Area Roma,Via del Forte Ostiense,21,41.8464626,12.4750069,4,113,51,18,7,23,info.gardenarea@italicahotels.com,65943183,https://www.hotelarearoma.it,9
232,Hotel Argentina Residenza Style Hotel,Via di Torre Argentina,47,41.8954633,12.4761558,4,24,12,,12,,info@argentinastylehotel.com,3.91E+11,http://www.argentinastylehotel.com/,1
233,Hotel Aristotele,Via Palestro,87,41.903402,12.505986,2,16,11,7,3,1,hotelalex88@gmail.com,3248321035,,1
234,Hotel Artromano,Viale Castro Pretorio,64,41.9042753,12.5060308,2,11,8,5,3,,risinternazionale@pec.it,684240927,,1
235,Hotel Ascot,Via Montebello,22,41.904909,12.4994276,2,18,11,5,5,1,info@hotelascotroma.com,64741675,,1
236,Hotel Astoria Golden Gate,Via dei Mille,34,41.9033702,12.5040575,2,15,8,1,7,,goldensrl2022@pec.it,3791098126,,1
237,Hotel Astrid,Largo Antonio Sarti,4,41.9234089,12.4687461,3,89,51,20,24,7,info@hotelastrid.com,63236371,www.hotelastrid.com,2
238,Hotel Atelier 800,Corso Vittorio Emanuele II,294,41.8990497,12.4668889,2,13,7,3,3,,info@atelier800.com,66872778,www.atelier800.com,1
239,Hotel Auditorium Mecenate,Via dello Statuto,44,41.894841,12.5012924,1,20,10,1,8,1,info@auditoriumdimecenate.com,64881464,,1
240,hotel aurelius,Via Aurelia,458,41.8988264,12.4256325,3,50,26,6,16,4,info@hotelaurelius.it,66624500,,13
241,Hotel Aurum Roma Olympic,Via Properzio,2:00 AM,41.9067305,12.4612101,4,145,77,22,43,11,olympic@aurumhotels.it,66896650,www.aurumhotels.it/grand-hotel-olympic-roma-centro-lazio,1
242,Hotel Aventino,Via di San Domenico,10,41.8829443,12.4803304,3,53,21,,11,9,info@aventinohotels.com,6570057,www.aventinohotels.com,1
243,Hotel Azzurra,Via del Boccaccio,25,41.9025996,12.4872678,2,22,10,3,3,3,hotelazzurra@hotmail.com,64746531,www.hotelazzurra.com,1
244,Hotel Balilla,Via Balilla,1,41.893328,12.5114525,3,18,9,,9,,balilla2023@legalmail.it,37129990659,,1
245,Hotel Barrett,Via di Torre Argentina,47,41.8954633,12.4761558,3,49,20,,11,9,info@hotelbarrett.it,66868481,,1
246,Hotel Beauty Palace,Via Principe Amedeo,79 A,41.8983611,12.5007886,2,25,14,3,11,,vertexpalace79@gmail.com,3892006589,,1
247,Hotel Beethoven,Via del Forte Braschi,2,41.9164184,12.4231476,3,25,13,1,12,,hotelbeethovensas@pec.it,66149370,,14
248,Hotel Bella Vita,Piazza Tommaso De Cristoforis,3:00 AM,41.9005612,12.5339707,3,43,19,,15,3,ali.sal8287@yahoo.com,3803686453,,4
249,Hotel Benedetto,Via Alberico Da Rosate,7,41.8943617,12.4160753,2,21,9,1,5,2,dipietropietro@gmail.com,3478687115,,13
250,Hotel Big Bang,Via Principe Amedeo,9,41.9000259,12.4981659,1,26,12,4,3,4,hotelbigbang@gmail.com,3356229068,www.hotelbigbang.it,1
251,Hotel Blue Marine Suites Rome,Via Zucchelli,20,41.9039121,12.4866158,3,24,12,,12,,info@bluemarine.it,3471054896,http://bluemarinesuiteromacentro.it,1
252,Hotel Bolivar,Via della Cordonata,6,41.897072,12.4861387,4,74,30,1,14,15,info@bolivarhotel.com,66791614,www.bolivarhotel.eu,1
253,Hotel Boomerang,Via degli Arlotti,20,41.8821962,12.3776671,3,147,60,11,11,38,amministrazione@hotelboomerangroma.com,66690307,www.hotelboomerangroma.com,12
254,Hotel Boutique Nazionale,Via Nazionale,66,41.899339,12.491388,3,16,8,,8,,siciliano.dante85@gmail.com,3886430975,,1
255,Hotel Bright,Via Prenestina,940 E,41.8932735,12.5977121,3,70,42,14,28,,info@hotelbright.it,645541360,,5
256,Hotel California,Via Principe Amedeo,39,41.8991522,12.4995549,3,94,43,1,34,7,,,,1
257,Hotel Campidoglio,Via Principe Amedeo,85,41.8980907,12.5009903,3,24,13,3,9,1,,,,1
258,Hotel Campo de' Fiori,Via del Biscione,6,41.8956378,12.4727897,4,61,23,1,6,16,info@hotelcampodefiori.com,668806865,www.hotelcampodefiori.com,1
259,Hotel Capannelle,Via Siderno,37,41.8351481,12.5553952,4,514,258,2,256,,residentmanager@hotelcapannelle.com,3515115734,,7
260,Hotel Caravaggio,Via Palermo,73,41.8993043,12.4927824,3,22,13,4,9,,hotelesesuitessrls@legalmail.it,64873261,,1
261,Hotel Caravaggio 2,Via Palermo,73,41.8993043,12.4927824,1,11,7,3,4,,hotelesesuitessrls@legalmail.it,64873261,,1
262,Hotel Caravel,Via Cristoforo Colombo,124 C,41.8652381,12.4963599,4,270,118,1,84,31,s.sampieri@hotelcaravel.it,65180789,http://info@hotelcaravel.it,8
263,Hotel Carmel,Via Goffredo Mameli,11,41.8864685,12.467981,2,20,11,5,3,3,reservation@hotelcarmel.it,65809921,www.hotelcarmel.it,1
264,hotel Carmen,Via Giovanni Amendola,77,41.8996164,12.5002273,2,18,8,,6,2,,,,1
265,Hotel Casa Mia In Trastevere,Via della Renella,88 90,41.890457,12.4714937,3,25,12,2,8,1,casamiaintrastevere@gmail.com,686974870,,1
266,Hotel Casa Monti,Via Panisperna,210,41.8965983,12.4922702,5,71,36,3,32,,andrea@casamontiroma.com,3494712351,,1
267,Hotel Casale Dei Massimi,Via della Pisana,952,41.8561788,12.3926163,2,22,18,14,4,,casaledeimassimi@gmail.com,666151109,,12
268,Hotel Casale Della Certosa,Via Pietrelcina,6,41.7199843,12.5844153,3,71,37,13,16,6,info@casalecertosa.it,671383055,www.casalecertosa.it,9
269,Hotel Castelfidardo,Via Castelfidardo,31,41.9064508,12.5007535,1,25,15,7,6,2,adrimmobiliare@pec.it,3665457527,,1
270,Hotel Castellino Roma,Via Cesare Battisti,133,41.8969742,12.482694,4,47,22,2,15,5,wehopesrl@gmail.com,66788982,,1
271,Hotel Castle,Salita di Castel Giubileo,196,41.9902469,12.5075318,2,61,34,8,25,1,,,,3
272,Hotel Cathrine,Via Volturno,27,41.9046237,12.4994027,1,15,10,5,5,,newcathrinehotel@gmail.com,6483634,,1
273,Hotel Catone District,Via Catone,34,41.9075113,12.4587103,3,46,24,3,20,1,booking@catonedistricthotel.itbooking,639735082,www.catonedistricthotel.it,1
274,Hotel Celio,Via dei Santi Quattro,35 C,41.8891897,12.495689,3,25,14,6,5,3,info@hotelcelio.com,67096377,,1
275,Hotel Cellini,Via Modena,5,41.9023862,12.49461,3,32,13,,7,6,info@hotelcellini.com,647825204,www.hotelcellini.com,1
276,Hotel Central Lodge,Via Buonarroti,19,41.8933378,12.5023501,3,42,18,,12,6,info@hotelcentrallodge.com,686923726,https://www.centrallodgehotel.com/,1
277,hotel centro cavour roma,Via Cavour,237,41.894332,12.4915217,3,23,14,5,9,,enehotel233@gmail.com,3477691607,,1
278,Hotel Chapter Roma,Via di Santa Maria de' Calderari,47,41.8931734,12.4758168,4,86,47,8,39,,info@chapter-roma.com,689935351,www.chapter-roma.com,1
279,Hotel Cherubini,Via Giovanni Amendola,77,41.8996164,12.5002273,1,25,11,1,6,4,info@hotelcherubini.com,3939866296,,1
280,Hotel Chicago,Via Gioberti,63,41.8984999,12.5000658,2,17,9,1,8,,adolfold@libero.it,3804660192,,1
281,Hotel Citta' 2000,Via della Tenuta di Torrenova,60,41.8589667,12.6144198,3,114,54,,48,6,amgestionialberghiere@gmail.com,62025540,,6
282,Hotel City Palazzo Dei Cardinali,Via dei Due Macelli,97,41.9036213,12.4849292,3,63,30,3,22,4,info@hcpalazzodeicardinali.it,66797468,www.hcpalazzodeicardinali.it,1
283,Hotel Concept Terrace,Via Barberini,50,41.9045684,12.4919999,3,19,8,,6,1,hotelrome50@gmail.com,3343821192,,1
284,Hotel Conciliazione,Borgo Pio,163,41.9038888,12.4607937,4,138,67,7,50,9,borgo2014@legalmail.it,684000101,,1
285,Hotel Concorde,Via Giovanni Amendola,95,41.8992831,12.5005591,2,77,36,7,17,12,concordehotel@ concordehotel.it,64825170,,1
286,Hotel Condominio Monti,Via Dei Serpenti,109,41.8966941,12.4901348,3,49,24,5,13,6,info@condominiomonti.it,64885889,www.condominiomonti.it,1
287,Hotel Condotti,Via Mario De Fiori,37,41.9061791,12.4806847,4,23,16,9,7,,amministrazione@hotelcondotti.com,66794661,,1
288,Hotel Continentale,Via Palestro,49,41.9047618,12.5042162,2,65,25,1,11,10,segreteria@bc-hospitality.com,644340051,,1
289,Hotel Coppede',Via Chiana,88,41.921006,12.5069012,3,25,12,2,8,1,boutiquehotelcoppede@gmail.com,68549535,,2
290,Hotel Corona,Via Napoli,3,41.8995583,12.4958155,3,131,61,13,36,4,info@hotelcoronaroma.it,64880080,www.hotelcoronaroma.it,1
291,Hotel Corot,Via Marghera,13,41.9022281,12.503444,3,66,28,4,12,10,info@corot.it,644700900,www.hotelcorot.com,1
292,Hotel Corso 281,Via del Corso,281,41.8972435,12.4821517,5,25,12,,11,1,suites@corso281.com,687809370,www.corso281.com,1
293,Hotel Crossroad,Via Giovanni da Empoli,13,41.8733656,12.4796135,3,42,21,3,15,3,info@crossroadhotel.it,645508302,,8
294,Hotel D'este,Via Carlo Alberto,4 B,41.8965927,12.5009784,3,79,39,12,14,13,hoteldeste@gmail.com,3291754080,,1
295,Hotel Damaso,Piazza della Cancelleria,60,41.8968166,12.4723493,3,89,39,,29,9,info@hoteldamaso.it,645503061,www.hoteldamaso.it,1
296,Hotel Darival,Via del Casale di San Basilio,11,41.9461778,12.5666917,3,31,21,11,10,,,,,4
297,Hotel De Clementi,Via Muzio Clementi,9,41.9056022,12.4724761,1,15,10,5,5,,info@hoteldeclementi.com,637898287,www.hoteldeclementi.com,1
298,Hotel De Monti,Via Panisperna,95,41.8967644,12.4923201,2,13,7,1,6,,contabilita95@gmail.com,64814723,,1
299,Hotel De Petris,Via Rasella,142,41.9025835,12.4873983,3,98,50,9,36,5,info@hoteldepetris.com,64819626,,1
300,Hotel Degli Artisti,Via degli Artisti,20,41.9053673,12.4868584,4,55,34,13,21,,info@hoteldegliartisti.com,642014991,http://www.hoteldegliartisti.com/it,1
301,Hotel Degli Imperatori,Via Guido Gonella,15,41.9472825,12.5885419,4,108,43,3,19,17,info@hotelimperatori.biz,641227623,,4
302,Hotel Dei Barbieri,Via dei Barbieri,3:00 AM,41.8951065,12.4759317,4,33,14,1,9,3,gmpiperno@gmail.com,66868994,www.hoteldeibarbieri.com,1
303,Hotel Dei Borgognoni,Via del Bufalo,126,41.9027671,12.4828013,4,100,51,5,43,3,info@hotelborgognoni.it,669941505,www.hotelborgognoni.com,1
304,Hotel Dei Congressi,Viale Shakespeare,29,41.8303613,12.4733048,4,195,104,14,89,1,,,,9
305,hotel dei quiriti suite,Via Germanico,198,41.9091417,12.463005,3,17,9,1,8,,aldocirulli@gmail.com,3939249008,,1
306,Hotel Del Corso,Via del Corso,79,41.906812,12.4780663,3,25,18,11,7,,francorecchio@libero.it,3356393791,,1
307,Hotel Dell'urbe,Via dei Mille,27 A,41.9022693,12.5049111,2,17,8,1,5,2,drgmichela@gmail.com,3931648484,,1
308,Hotel Delle Cinque Lune,Via Giuseppe Zanardelli,23,41.9005975,12.4724022,3,31,15,,14,1,assistenza.clienti@booking.com,683365700,https://anticadimoradellecinquelune.com-hotel.com/it/,1
309,Hotel Delle Civette,Via Alessandro Torlonia,6,41.9147651,12.5137025,3,50,30,12,16,2,info@hoteldellecivette.it,642986230,www.hoteldellecivette.it,2
310,Hotel Delle Muse,Via Tommaso Salvini,18,41.9302322,12.4929034,3,122,58,12,32,10,,,,2
311,Hotel delle Vittorie,Via Col di Lana,24,41.9176585,12.4633611,3,77,41,6,34,1,coldilanasrl@pec.it,3388488249,,1
312,Hotel Diana,Via Principe Amedeo,4,41.9006976,12.4973793,4,305,157,39,99,8,,,,1
313,Hotel Diocleziano,Via Gaeta,71,41.9040004,12.4995932,4,59,35,12,22,1,hoteldiocleziano@bzarhotel.it,648900767,www.hoteldioclezianoroma.com,1
314,Hotel Diplomatic,Via Vittoria Colonna,28,41.9050636,12.472174,3,69,35,4,28,3,a.lassalandra@groupevaladier.com,66832685,,1
315,Hotel Divino Amore - Casa Del Pellegrino,Via del Santuario,80,41.7772044,12.5439636,3,212,84,,42,40,amministrazione@hoteldivinoamoreroma.it,6713519,,9
316,Hotel Dock,Via Forlì,31,41.9102166,12.5151716,3,25,13,1,12,,,,,2
317,Hotel Domus Aurelia,Via Aurelia,218,41.8997875,12.4437421,3,117,45,1,29,2,info@novadomusaurelia.it,697161530,https://www.novadomusaurelia.it/,13
318,Hotel Domus Praetoria,Via Milazzo,42,41.9031208,12.5059294,1,24,12,3,6,3,restitalia@pecimprese.it,3476647761,,1
319,Hotel Domus Rome Via Nazionale,Via Nazionale,251,41.9018069,12.4945889,1,19,9,1,6,2,hoteldomusrome@gmail.com,65400563,,1
320,Hotel Domus Termini,Via Giovanni Amendola,77,41.8996164,12.5002273,1,25,12,1,9,2,enchin.chiang@gmail.com,3395888366,,1
321,Hotel Domus Tiberina,Via In Piscinula,37,41.8888421,12.4770024,2,13,10,7,3,,tiberina24srl@gmail.com,3888692855,,1
322,Hotel Donatello,Via di Porta Maggiore,83,41.8922047,12.5133298,3,87,42,6,28,7,info@donatellorome.com,67010833,www.donatellorome.com,1
323,hotel donna francesca,Via Firenze,48,41.9026249,12.4939786,1,23,9,3,2,1,info@hoteldonnafrancesca.com,3312153754,www.hoteldonnafrancesca.com,1
324,hotel dorica,Piazza del Viminale,14,41.900059,12.4943834,3,24,13,2,11,,amministrazione@hoteldorica.com,6483615,,1
325,Hotel Dotcampus Roma,Via Faleria,21,41.8826881,12.5098517,3,179,83,2,66,15,info@dotcampus.it,3402025885,,7
326,Hotel Ekotel,Via Pontina,397,41.7907586,12.4518621,2,30,15,,15,,info@ekotel.it,632092037,https://www.ekotel.it/,9
327,Hotel Elide,Via Firenze,50,41.9024056,12.4940444,3,24,14,5,8,1,info@hotelelide.com,62057420,,1
328,Hotel Elite,Via Francesco Crispi,49,41.9043061,12.4856459,3,38,21,8,9,4,sangiorgio_srl@pec.it,65911659,,1
329,Hotel Enrica,Viale Castro Pretorio,25,41.9034995,12.5073526,1,16,8,1,6,1,hotel.enrica@tiscali.it,64453742,,2
330,Hotel Erdarelli,Via dei Due Macelli,28,41.9034669,12.484756,3,41,23,10,8,5,valutourist@pec.it,3204848038,,1
331,Hotel Espana,Via Luigi Luzzatti,21,41.8917103,12.5104143,2,16,10,4,6,,reservation@blamhotels.com,6770005,,1
332,Hotel Etico Roma,Via Giuseppe Pisanelli,39,41.9143678,12.4728299,3,39,18,,15,3,info@albergoeticoroma.it,652722977,www.albergoeticoroma.it,2
333,Hotel Eurorooms,Via Palestro,87,41.903402,12.505986,1,15,8,2,5,1,info@eurorooms.it,664871174,www.eurorooms.it,1
334,Hotel Family House,Via Bixio,72,41.8929301,12.5080804,1,19,11,4,6,1,familyhouseroma@gmail.com,67000770,,1
335,Hotel Farnese,Via Alessandro Farnese,30,41.9114524,12.4675409,4,50,23,2,15,6,info@hotelfarnese.com,63212553,www.hotelfarnese.com,1
336,Hotel Fellini,Via Rasella,56,41.9022919,12.4866835,3,60,40,21,18,1,info@hotelfellini.com,642742732,www.hotelfellini.com,1
337,Hotel Fendi Private Suites,Via della Fontanella di Borghese,48,41.9044986,12.4783441,5,14,7,,7,,info@fendiprivatesuites.com,697798080,www.fendiprivatesuites.com,1
338,Hotel Fenix,Viale Gorizia,7,41.9186264,12.5141414,4,148,73,12,48,12,info@fenixhotel.it,68540741,www.fenixhotel.it,2
339,Hotel Ferrari,Via Giovanni Amendola,95,41.8992831,12.5005591,2,44,16,3,1,9,faithsrls@legalmail.it,645471503,,1
340,Hotel Ferraro,Via Cavour,266,41.8937547,12.4901272,2,18,10,4,4,2,dinicola.giuseppe@gmail.com,6160513541,www.hotelferraro.it,1
341,Hotel Fiori,Via Nazionale,163,41.8969772,12.4872871,2,24,12,2,8,2,pdl78@tiscali.it,3383614215,,1
342,Hotel Foro Romano Imperatori,Via Cavour,294,41.893537,12.4894538,3,18,10,4,4,2,info@hotelfororomano.com,64826218,http://www.hotelfororomano.com/,1
343,Hotel Forte,Via Margutta,61,41.907338,12.4808414,3,36,19,5,11,3,,,,1
344,Hotel Gabriella,Via Palestro,88,41.9033809,12.5065237,3,51,23,,18,5,,,,1
345,Hotel Garda,Via Lombardia,30,41.9077521,12.4881969,3,58,26,4,13,8,,,,1
346,Hotel Gea Di Vulcano,Via Nazionale,243,41.901484,12.4940831,3,25,15,5,10,,einaudiaccomodationssrl@pec.it,64884996,,1
347,Hotel Genova,Via Cavour,25,41.8998215,12.498501,4,175,85,1,78,6,genova@remarhotels.com,6476951,,1
348,Hotel Giada,Via Principe Amedeo,9,41.9000259,12.4981659,1,14,8,3,4,1,maxcolan@gmail.com,3275444972,,1
349,Hotel Gianicolo,Viale delle Mura Gianicolensi,107,41.887568,12.46101,4,79,45,11,34,,,,,12
350,Hotel Giardino D'europa,Via Lucrezia Romana,95,41.8280439,12.5827642,3,148,77,14,55,8,info@hotelgiardinoeuropa.it,67222252,www.hotelgiardinoeuropa.it,7
351,Hotel Gioberti,Via Gioberti,20,41.8993697,12.5013539,4,180,90,6,78,6,reservation@hotelgioberti.it,64440625,,1
352,Hotel Giolitti,Via Giovanni Giolitti,415,41.8934551,12.5120079,3,25,13,1,12,,booking@giolittihotel.com,697990889,,1
353,Hotel Giolitti Smart,Via Giovanni Giolitti,413,41.8934807,12.5119378,2,17,10,3,7,,booking@giolittihotel.com,697990889,,1
354,Hotel Giolli Nazionale,Via Nazionale,69,41.8992813,12.4912527,3,114,61,13,44,3,info@hotelgiolli.it,64882393,,1
355,Hotel Giotto,Via Cardinal Passionei,35,41.911049,12.4212671,3,143,76,18,49,9,info@hotelgiotto.eu,661662394,,13
356,Hotel Giotto Flavia,Via Flavia,84,41.9073287,12.4972968,2,23,14,5,9,,info@hotelgiottoflavia.com,3.91E+11,www.hotelgiottoflavia.com,1
357,Hotel Giubileo,Via Carlo Alberto,13,41.8966147,12.5002598,2,25,17,9,8,,ahmed.sale89@yahoo.com,32755580000,,1
358,Hotel Giuggioli,Via Germanico,198,41.9091417,12.463005,3,14,9,4,5,,quiriti@tiscali.it,636005389,,1
359,Hotel Giulietta e Romeo,Via Eraclito di Efeso,23,41.7466099,12.3574269,3,47,21,2,13,5,info@hotelgiuliettaeromeo.eu,650931193,www.hotelgiuliettaeromeo.eu,10
360,Hotel Gravina Sanpietro,Via della Cava Aurelia,17,41.8961516,12.4505522,3,84,44,4,40,,info@hotelgravinasanpietro.it,639674205,,13
361,Hotel Gregoriana,Via Gregoriana,18,41.9046437,12.4846604,3,47,21,3,10,8,,,,1
362,Hotel Homs,Via della Vite,71,41.9041285,12.4823895,4,102,51,21,17,5,info@hotelhoms.it,3272216558,,1
363,Hotel Horti 14,Via di San Francesco di Sales,14,41.8939756,12.4630976,4,50,22,,19,,info@horti14.com,668806289,www.horti14.com,1
364,Hotel Idea,Via Attilio Benigni,7,41.930187,12.560864,3,388,86,8,48,30,dongpartners@gmail.com,645610700,,4
365,Hotel Il Villino,Via Nicolò Tommaseo,6,41.8740336,12.4637779,3,23,12,1,11,,archstudio05@yahoo.it,3332578639,,12
366,Hotel Indipendenza,Via Magenta,13,41.9033759,12.5024959,1,20,11,3,7,1,hotelindipendenza@gmail.com,644362204,www.hotelindipendenza.it,1
367,Hotel Infinito,Via Ettore Perrone,1,41.8914542,12.5107803,3,24,16,8,8,,,,,1
368,Hotel Jonico,Via Silicella,41,41.8627579,12.5988839,3,102,51,5,41,5,hjamministrazione@gmail.com,623880,,6
369,Hotel Kent,Via Reggio Emilia,71,41.912634,12.5021664,3,24,17,10,7,,niucoroma@gmail.com,68540797,,2
370,Hotel La Fenice,Via Francesco Crispi,15 A,41.9032988,12.4853435,3,17,12,7,5,,info@lafenicehotelroma.it,669924637,https://www.lafenicehotel.com/it/,1
371,Hotel La Giocca,Via Salaria,1223,41.9877263,12.5110268,4,100,48,5,34,9,,,,3
372,Hotel La Pergola,Via dei Prati Fiscali,55,41.9459046,12.5229463,3,178,92,24,51,16,info@hotellapergola.com,68107250,http://www.hotellapergola.it/,3
373,Hotel La Place,Piazza di San Lorenzo in Lucina,35,41.9037128,12.4783082,4,13,7,2,4,1,vitticentro@yahoo.it,668307269,,1
374,Hotel La Residenza,Via Emilia,22,41.9067683,12.4886026,4,74,25,1,7,9,info@laresidenzaroma.com,64880789,www.laresidenzaroma.com,1
375,Hotel La Rovere,Vicolo di Sant'Onofrio,5,41.8986503,12.4621749,4,55,27,3,20,4,,,,1
376,Hotel La Scaletta,Lungomare Paolo Toscanelli,130,41.7301527,12.2755029,3,47,21,3,11,6,info@lascaletta.it,65672522,www.lascaletta.it,10
377,Hotel La Ville Rome,Via Nomentana,110,41.9178628,12.514467,4,41,20,,19,1,account@aiohotels.it,3387403550,,2
378,Hotel Labelle,Via Cavour,310,41.8934558,12.4888506,2,25,10,1,4,4,info@hotellabelle.it,66794750,www.hotellabelle.it,1
379,Hotel Latinum,Piazza di Porta Maggiore,11,41.8920487,12.5141764,4,24,12,,12,,,,,1
380,Hotel Laura,Viale XXI Aprile,109,41.914235,12.520795,3,65,35,10,20,5,info@hotellauraroma.it,644233472,www.hotellauraroma.it,2
381,Hotel Le Reve De Naim,Via Mario De Fiori,5,41.904658,12.4817936,4,18,9,,9,,massimo.naim@gmail.com,3388061631,,1
382,Hotel Lella,Via Palestro,9,41.9076771,12.5006318,2,38,13,7,6,,hotellella@gmail.com,6484940,www.hotellellarome.com,1
383,Hotel Leone,Via Cavour,47,41.8995596,12.4981896,1,20,10,3,4,3,hotelleoneroma@outlook.it,64871590,www.hotelleoneroma.com,1
384,Hotel Les Chambres D'or Catone 21,Via Catone,21,41.9073529,12.459151,1,12,7,2,5,,info@leschambresdor.com,63908161,,1
385,Hotel Les Chambres D'or Gracchi 32,Via dei Gracchi,32,41.9072268,12.4587617,1,13,7,2,4,1,info@leschambresdor.com,63908161,,1
386,Hotel Lh Lloyd Roma,Via Alessandria,110 A,41.9121546,12.5031749,3,105,52,5,41,6,info@laminhotels.com,644288,,2
387,Hotel Lirico,Via del Viminale,31,41.9002502,12.4952555,3,50,26,2,24,,,,,1
388,Hotel' Little Aurelius,Via Cicerone,44,41.9067575,12.4686842,1,12,7,2,5,,pinoarrighi@hotmail.com,3392074774,,1
389,Hotel Locanda Cairoli,Piazza Benedetto Cairoli,2,41.893343,12.4749029,4,24,13,2,11,,info@locandacairoli.com,668809278,www.locandacairoli.com,1
390,Hotel Locarno,Via Della Penna,22,41.9096822,12.4747589,5,98,49,,49,,booking@hotellocarno.com,63610841,,1
391,Hotel Lunetta,Piazza del Paradiso,68,41.8959176,12.4734831,4,49,30,11,19,,alessandro.montaldo@hotellunetta.com,63218368,,1
392,Hotel Magic,Via Milazzo,20,41.9021999,12.5045539,2,23,10,2,4,3,info@hotel-magic-rome.com,64959880,,1
393,Hotel Malaga,Via Udine,14,41.9101318,12.5166428,3,25,19,13,6,,info@hotelmalagaroma.com,644231322,,2
394,Hotel Mancino 12,Via del Mancino,12,41.8974514,12.4826582,4,24,14,5,8,1,welcome@hotelmancino12.com,6674971,,1
395,Hotel Marcantonio,Via Cavour,47,41.8995596,12.4981896,2,50,24,5,14,4,,,,1
396,Hotel Martini,Via Nazionale,18,41.9009454,12.4937967,3,24,10,1,4,5,hotelmartini@gmail.com,64880994,www.hotelmartini.net,1
397,Hotel Martini Rooms,Via Cairoli,101,41.8942648,12.5078775,1,14,7,2,3,2,smile.sas786@gmail.com,3511371484,,1
398,Hotel Maryelen,Via Principe Amedeo,85 A,41.8980907,12.5009903,1,16,9,2,7,,info@maryelen.com,64460626,www.hotelmaryelen.com,1
399,Hotel Maryelen 2,Via Principe Amedeo,87 B,41.8981125,12.5012775,2,12,7,2,5,,info@maryelen.com,64460626,www.hotelmaryelen.com,1
400,Hotel Mascagni,Via Vittorio Emanuele Orlando,90,41.9038548,12.4947912,4,84,40,2,32,6,info@hotelmascagni.com,3.91E+11,www.hotelmascagni.com,1
401,Hotel Max,Via Gioberti,30,41.8988934,12.500825,3,25,15,5,10,,terminipalacesrl@legalmail.it,63728683,,1
402,Hotel Maximus,Via Firenze,12,41.9008508,12.4948299,3,69,39,12,24,3,info@hotelmaximus.com,3888558521,,1
403,Hotel Medici,Via Flavia,96 N,41.9075756,12.4977353,3,150,68,12,34,18,info@hotelmedici.com,64827319,www.hotelmedici.com,1
404,Hotel Memphis,Via degli Avignonesi,36,41.9028186,12.4864705,4,35,20,6,13,1,memphis@remarhotels.com,6485849,www.hotel-memphis-rome.com,1
405,Hotel Metropolis,Viale Delle Milizie,26,41.9133207,12.4646152,4,90,55,32,15,4,,,,1
406,Hotel Mimosa,Via di Santa Chiara,61,41.8978247,12.4759721,1,25,11,2,5,3,info@hotelmimosa.net,668801753,,1
407,Hotel Mirage,Via Milazzo,4,41.9016715,12.5037849,2,23,14,5,9,,info@bnbgalaxy.it,3476206670,,1
408,Hotel Mirti,Via dei Platani,101,41.881189,12.5673942,1,24,14,4,10,,info@hotelmirti.it,3939249008,,5
409,Hotel Modigliani,Via della Purificazione,42,41.9049026,12.4867323,3,47,23,,22,1,,,,1
410,Hotel Monte Cenci,Via Beatrice Cenci,10,41.8923048,12.4756433,4,60,30,2,27,,info@montecenci.com,694538750,www.montecenci.com,1
411,Hotel Monti First,Via della Consulta,1 B,41.8982315,12.4889748,1,24,12,2,8,2,montifirst@livingroma.it,648913457,www.montifirst.com,1
412,Hotel Montreal,Via Carlo Alberto,4,41.8965927,12.5009784,3,14,7,1,5,1,lucky2024srl@pec.it,3384980680,,1
413,Hotel Museum,Via Tunisi,8,41.9074921,12.4530378,3,68,31,2,24,2,info@hotelmuseum.it,639723941,,1
414,Hotel Navona,Via dei Sediari,8,41.8977498,12.4747551,3,43,18,1,11,4,info@hotelnavona.com,668301252,www.hotelnavona.com,1
415,HOTEL ORBIS,Via Principe Amedeo,62,41.8992162,12.499877,2,19,9,2,5,1,ad.roma2021@gmail.com,64743410,,1
416,Hotel Oriente,Via dello Statuto,58,41.8948561,12.5010036,2,58,27,4,17,4,info@hoteloriente.net,64873119,,1
417,Hotel Ottaviano Augusto,Via Bernardino Telesio,4:00 AM,41.9116088,12.4519264,3,56,24,,20,,amministrazione@hotelottavianoaugusto.it,3388912141,,1
418,Hotel Paisiello Parioli,Via Giovanni Paisiello,47,41.9198423,12.4922766,2,87,49,23,14,12,,,,2
419,Hotel Palace Nardo,Via Gorlago,65,41.9388706,12.3843151,3,55,38,24,11,3,palacenardo@gmail.com,630994535,,14
420,Hotel Palazzo Ripetta.,Via di Ripetta,231,41.9085298,12.4755444,5,153,78,3,75,,direzione.generale@palazzoripetta.com,63231144,,1
421,Hotel Palazzo Talia,Largo Del Nazareno,25,41.9028426,12.4835586,5,52,26,,26,,info@palazzotalia.com,6692521,www.palazzotalia.com,1
422,Hotel Pantheon,Via dei Pastini,131,41.8993552,12.4775378,4,28,12,2,6,2,info@hotelpantheon.it,66787746,,1
423,Hotel Paolo II,Via Paolo II,3,41.8984561,12.4541381,3,25,15,5,10,,altaserrasrl@email.it,335451897,www.hotelpaoloii.com,13
424,Hotel Parco La Borghesiana,Via Della Capanna Murata,120,41.8723989,12.6640578,4,111,58,11,42,4,,,,6
425,Hotel Paris,Via Firenze,57,41.9019249,12.4943684,3,100,50,14,25,8,s57@pec.net,3459443311,,1
426,Hotel Parker,Via Giovanni Giolitti,431,41.8931429,12.5124382,3,62,29,2,21,6,reservation@blamhotels.com,6770005,,1
427,Hotel Patria,Via Torino,36,41.9026426,12.4946942,3,99,52,14,30,7,info@hotelpatria.it,64814872,,1
428,Hotel Petra,Via Sante Vandi,76,41.8445463,12.6072904,3,21,9,,6,3,info@hotelpetra.it,67232444,,7
429,Hotel Piccadilly,Via Magnagrecia,122,41.8810582,12.5078903,3,93,55,19,34,2,info@hotelpiccadillyroma.it,677207017,www.hotelpiccadillyroma.it,7
430,Hotel Piccolo Borgo,Via delle Capannelle,134,41.8351143,12.5712169,3,88,48,9,38,1,amministrazione@piccoloborgo.it,672910187,,7
431,Hotel Pineta Palace,Via San Lino Papa,35,41.9195656,12.420909,4,478,194,,108,84,info@hotelpinetapalace.com,63013800,https://www.hotelpinetapalace.com/,14
432,Hotel Ping Pong,Lungomare Paolo Toscanelli,84,41.7292357,12.2786899,3,48,30,12,18,,info@hotelpingpongostia.com,65601733,www.hotelpingpongostia.com,10
433,Hotel Pisa,Via Pietro Micca,10,41.8934659,12.5115869,1,25,13,3,8,2,hotelpisaroma@gmail.com,645443835,www.hotelpisaroma.it,1
434,Hotel Planet,Via Milazzo,3,41.9016206,12.5043058,2,25,14,3,11,,biettus@hotmail.com,3404849287,,1
435,Hotel Poggio Verde,Via Poggio Verde,31,41.8565879,12.4184241,3,89,39,2,26,9,info@poggioverderoma.com,665192189,http://www.poggioverderoma.com/,11
436,Hotel Pomezia,Via dei Chiavari,12,41.8949243,12.4743307,2,51,25,4,16,5,hotelpomezia@bzarhotel.it,684030773,,1
437,Hotel Ponte Milvio,Via della Farnesina,23,41.9383472,12.4641562,3,46,24,3,20,1,info@hotelpontemilvio.com,633974309,https://www.hotelpontemilvio.com/,15
438,Hotel Porta Pia,Via Messina,25,41.9111488,12.5025759,3,25,19,13,6,,dedasrl@hotmail.com,3890545075,,2
439,hotel positano new,Via Palestro,49,41.9047618,12.5042162,2,18,10,4,4,2,mahabubitaly@gmail.com,3807719334,,1
440,Hotel Primavera,Piazza di San Pantaleo,3,41.8971497,12.4725544,2,33,15,2,8,5,hotelprimaveraroma@gmail.com,668803109,www.hotelprimavera-roma.it,1
441,Hotel Principe,Via Principe Amedeo,67,41.8988202,12.5000552,2,15,9,4,4,1,hrsrl78@gmail.com,3334677400,www.hotel principe claud .it,1
442,Hotel Principe Eugenio,Via Principe Eugenio,92,41.8935604,12.5090256,3,36,16,,13,2,principeeugenio@tiscali.it,677206094,,1
443,Hotel Principe Torlonia,Via Carlo Fea,3,41.9194233,12.517821,4,59,26,2,19,1,info@hotelprincipetorlonia.com,688801989,,2
444,Hotel Principessa Isabella,Via Sardegna,149,41.9099298,12.4937363,4,92,43,4,31,6,info@hotelprincipessaisabella.com,6484523,www.hotelprincipessaisabella.eu,1
445,Hotel Priscilla,Via Calabria,17,41.9099516,12.4973164,3,79,36,3,23,10,info@hotelpriscilla.it,642817602,www.hotelpriscilla.it,1
446,Hotel Quirinale,Via Nazionale,7,41.9013589,12.4948971,4,490,209,4,140,54,info@hotelquirinale.it,64707,,1
447,Hotel Raffaello,Via Urbana,3,41.8977558,12.4953088,3,88,41,5,29,3,amministrazione@rgrhotels.it,683467736,www.hotelraffaello.it,1
448,Hotel Regency,Via Romagna,42 A,41.9099552,12.4940598,4,82,41,,41,,info@theregencyrome.it,694682000,,1
449,Hotel Regno,Via del Corso,331,41.8999132,12.4807882,3,59,23,,15,3,valerioleopoldoceccarelli@gmail.com,684009850,https://www.hotelregno.com/,1
450,Hotel Relais De La Poste,Via del Corso,117,41.9055325,12.4785868,3,25,14,3,11,,aenaria75srl@legalmail.it,3395220565,,1
451,Hotel Relais Dei Papi,Via dei Gracchi,161,41.9083392,12.4642597,3,84,40,2,33,4,nicosiaaaa2000@yahoo.it,63200921,,1
452,Hotel Relais Manzoni,Via Carlo Emanuele I,14,41.8910181,12.5096265,3,14,11,8,3,,info@relaismanzoni.it,685301113,http://relaismanzoni.it/,1
453,Hotel Relais San Pietro,Viale Delle Milizie,134,41.9110018,12.4564254,3,25,13,1,12,,dantemasellis@libero.it,984518117,,1
454,Hotel Relais Villa Coppede'.,Via Tronto,1,41.919876,12.5037457,4,24,11,2,6,2,amministrazione@artcityhotel.it,662205529,,2
455,Hotel & residence Magnolia,Via di Valle Aurelia,116,41.9076727,12.4374697,2,72,22,1,21,,,,,14
456,Hotel Rinascimento,Via del Pellegrino,122,41.8972789,12.4683548,4,22,13,6,6,,info@hotelrinascimento.com,3.91E+11,https://www.hotelrinascimento.com/,1
457,Hotel- Ripa- Roma,Via Luigi Gianniti,21,41.8826246,12.4706514,4,416,200,,192,,frontdesk@hotelriparoma.com,658611,https://www.hotelriparoma.com,12
458,Hotel Roi,Piazza dei Re di Roma,64,41.8822792,12.5149346,1,18,11,4,7,,info@roihotel.com,670399394,,7
459,Hotel Roma Aurelia Antica,Via degli Aldobrandeschi,223,41.8755912,12.3947649,4,590,282,,257,24,info@hotelromaaureliantica.com,3484942501,,12
460,Hotel Roma Italia Viminale,Via Venezia,18,41.8997915,12.4929352,2,41,23,8,12,3,rm.viminale@hotelbb.com,64828355,,1
461,Hotel Roma Pietralata,Via Pan,66,41.9146349,12.5542948,3,129,68,17,41,10,rm.pietralata@hotelbb.com,64510612,https://www.hotel-bb.com/it,4
462,Hotel Roma San Lorenzo - Termini,Via dei Sabelli,177,41.8989179,12.5188443,3,107,67,29,36,2,rm.sanlorenzo@hotelbb.com,64468634,https://www.hotel-bb.com/it,2
463,Hotel Roma Tiburtina Metro,Via di Ponte Mammolo,28,41.9227292,12.5702613,3,25,15,5,10,,info@hotelromatiburtina.it,690209440,www.hotelromatiburtina.it,4
464,Hotel Roma Torvergata,Via Vico Viganò,24,41.8662167,12.6300982,4,400,210,21,188,1,amministrazione@trevipalace.com,6690101,,6
465,Hotel Roma Tuscolana - San Giovanni,Via Assisi,51,41.8795814,12.5256481,3,248,120,1,110,9,rm.tuscolana@hotelbb.com,6784692,http://hotelbb.com,7
466,Hotel Roma Vaticano,Via Attilio Regolo,19,41.9083168,12.4647211,1,12,7,3,3,1,,,,1
467,Hotel Romulus,Via Salaria,1069,41.9743023,12.5041266,3,176,72,2,36,34,info@hotelromulus.com,68801669,,3
468,Hotel Rosa Italia,Via Treviso,37,41.9081317,12.5145424,2,15,13,11,2,,rosaitaliasel@pec.it,3314314807,,2
469,Hotel Royal Bissolati,Via Leonida Bissolati,40 A,41.9052571,12.4914026,4,65,31,,28,3,info@hotelroyalbissolati.com,681156688,www.hotelroyalbissolati.com,1
470,hotel sallustio,Via Flavia,84,41.9073287,12.4972968,1,12,8,4,4,,info.hotelsallustio@gmail.com,68551287,,1
471,Hotel San Giusto,Piazza Bologna,58,41.9143182,12.5214227,3,124,67,18,41,8,sangiusto@garibaldihotels.it,644244598,,2
472,Hotel San Pietro,Via Cardinal Cassetta,9,41.8976459,12.4507845,3,83,39,8,19,11,info@hotelsanpietro.com,6630876,www.hotelsanpietro.com,13
473,Hotel San Remo,Via D'Azeglio,36,41.8998142,12.4976524,3,213,78,7,19,41,booking@sanremoroma.com,691516000,,1
474,Hotel Santa Maura 2,Via Casilina,1038,41.8676961,12.5880998,4,95,41,1,26,14,hotelsantamaura2@gmail.com,623267630,,6
475,Hotel Santa Prisca,Largo Manlio Gelsomini,25,41.8788761,12.4793197,2,89,49,9,40,,hsprisca@hotelsantaprisca.it,65750469,,1
476,Hotel Seiler,Via Firenze,48,41.9026249,12.4939786,2,24,17,12,3,2,diego.allocca@libero.it,3483711568,,1
477,Hotel Select,Via Vittorio Bachelet,6,41.9043326,12.5037565,3,37,21,5,16,,lucaludovici1@gmail.com,3355265975,,1
478,Hotel Shasa,Via Padre Lino Da Parma,11,41.9315773,12.57856,3,25,14,3,11,,info@shasahotel.com,64101633,http://www.shasahotel.com/prenotazioni.html,4
479,Hotel Siracusa,Via Marsala,50,41.902023,12.5032529,3,197,140,84,55,1,hotelsiracusa@raelihotels.it,6490191,,1
480,Hotel Sirenetta,Lungomare Paolo Toscanelli,46,41.7281374,12.2822895,3,93,59,29,26,4,info@hotelsirenettaostia.com,65622310,,10
481,Hotel Sky Roma,Via Napoleone III,75,41.8962967,12.5025935,2,13,8,3,5,,rossoitalia2023@gmail.com,3332835718,,1
482,hotel smeraldo,Vicolo de' Chiodaroli,9,41.8946699,12.474447,3,107,49,2,36,11,info@smeraldoroma.com,66892121,,1
483,Hotel Sole Al Pantheon,Piazza della Rotonda,63,41.8995572,12.4770898,4,49,25,3,20,2,info@hotelsolepantheon.com,66780441,www.hotelsolealpantheon.com,1
484,Hotel Solis-Hs311,Via Cavour,311,41.8938191,12.4893194,3,34,17,3,11,3,info@hotelsolis.com,669923395,,1
485,Hotel Sourire,Via delle Terme Deciane,3,41.8825724,12.4839854,3,62,22,,9,8,sourire@tiscali.it,65750958,www.sourirehotel.it,1
486,Hotel Star,Via Salaria,,42.0149353,12.5658723,3,46,25,4,21,,info@hotelstar-roma.it,68887845,http://www.hotelstar-roma.it/,3
487,Hotel Suite Caesar,Via Milazzo,14,41.9019355,12.5041727,2,18,9,3,3,3,suitecaesar@gmail.com,64463124,www.suitecaesarhotelroma.it,1
488,Hotel Sweet Home,Via Principe Amedeo,47,41.8991216,12.4996877,2,25,13,2,10,1,info@hotelsweethome.it,64880954,www.hotelsweethome.it,1
489,Hotel Teatro Di Pompeo,Largo del Pallaro,8,41.8955011,12.4736855,3,25,13,1,12,,booking@hotelteatrodipompeo.it,668300170,http://www.hotelteatrodipompeo.it/,1
490,Hotel Tempio Di Pallade,Via Giovanni Giolitti,425,41.8932966,12.5123124,3,94,41,2,26,12,amministrazione@hoteltempiodipallade.it,670451521,,1
491,Hotel Termini,Via Giovanni Amendola,77,41.8996164,12.5002273,2,16,8,1,6,1,,,,1
492,Hotel Terrazza Magenta,Via Magenta,39,41.902297,12.5038605,1,8,7,6,1,,dennislegaspi95@yahoo.com,3713997827,,1
493,hotel The Brand,Via degli Aldobrandeschi,295,41.8749051,12.3940487,4,178,84,,79,,info@thebrandhotelroma.com,68603341,,12
494,Hotel The Corner Roma,Viale Aventino,121,41.880532,12.4846964,4,18,9,,9,,federicodellarocca@gmail.com,3488875963,,1
495,Hotel The H'all Tailor Suite,Via Giuseppe Pisanelli,23,41.9137109,12.4730133,5,31,14,,11,3,info@thehallroma.com,632110128,www.thehallroma.com,2
496,Hotel Tito,Via Marghera,29,41.9025276,12.5038521,3,23,15,7,8,,hoteltito@hotmail.com,3939249008,,1
497,Hotel Touring,Via Principe Amedeo,2,41.9008928,12.497061,2,53,30,13,11,6,h.touring@tiscali.net,64827911,www.hoteltouring.net,1
498,Hotel Tre Stelle,Via San Martino della Battaglia,11,41.9053853,12.5045229,2,75,41,13,22,6,,,,1
499,Hotel Trecento,Via del Corso,300,41.8972875,12.4818018,3,25,13,1,12,,luxurycodesrl@legalmail.it,3346444683,,1
500,Hotel Trilussa Palace Congress & Spa,Piazza Ippolito Nievo,27,41.8800428,12.4664185,4,93,40,2,25,11,info@trilussapalacehotel.it,65881963,,12
501,Hotel Triviho,Via Barberini,50,41.9045684,12.4919999,3,21,9,,6,3,info@triviho.com,645618210,,1
502,Hotel Valentino Palace,Via Filippo Turati,34,41.8987142,12.5015123,3,22,11,2,7,2,valentinoinn@gmail.com,3458910074,,1
503,Hotel Valeri,Largo dell'Amba Aradam,3,41.8831402,12.4990643,3,21,10,,9,1,,,,1
504,Hotel Valerï¿½,Via dei Valeri,1,41.883969,12.4993884,3,17,8,,7,1,info@hotelvaleri.it,677591793,,1
505,Hotel Valle,Via Cavour,134,41.8967607,12.4955879,3,93,42,2,30,9,info@hotelvalle.it,64815736,www.hotelvalle.it,1
506,Hotel Varese,Via Varese,26,41.9030508,12.5053277,3,60,34,14,14,6,direzione@hotelvareseroma.com,645777980,www.hotelvareseroma.com,1
507,Hotel Veneto Palace,Via Piemonte,63,41.9090066,12.4932404,4,148,70,1,60,9,info@hotelveneto.com,62037,https://www.hotelveneto.com/,1
508,Hotel Venustas,Via Vittoria Colonna,27,41.90531,12.4718219,3,25,12,2,7,3,segreteria@bestsuitesroma.it,3200747226,,1
509,Hotel Verona,Via di Santa Maria Maggiore,154,41.8973857,12.496656,3,74,37,,37,,,,,1
510,Hotel Vespasiano,Via Vespasiano,49,41.9079924,12.4569789,4,24,12,,12,,info@hotelvespasiano.it,691511414,www.hotelvespasiano.it,1
511,Hotel Via Veneto L'essenza Di Roma,Via Vittorio Veneto,118,41.9084963,12.488791,5,16,8,2,5,,amministrazione@hotelviaveneto.it,669325067,https://www.hotelviaveneto.it/,1
512,Hotel Vienna,Via Salvatore Barzilai,203,41.8411391,12.5971238,1,79,37,4,25,7,info@hv2017srl.it,67234219,,7
513,Hotel Viennese,Via Marsala,64,41.9017847,12.5034709,1,14,7,1,5,1,rafroma08@gmail.com,3472642437,,1
514,Hotel Villa Eur Parco Dei Pini,Piazzale Marcellino Champagnat,2,41.8227511,12.4746934,3,180,93,8,83,2,info@villaeur.it,654220627,www.villaeur.com,9
515,Hotel Villa Grazioli,Via Salaria,241,41.9216645,12.5005461,4,45,30,15,15,,amministrazione@villagrazioli.it,68416587,www.villagrazioli.it,2
516,Hotel Villa Maria Regina,Via della Camilluccia,687,41.9493587,12.4550979,4,230,115,15,85,15,leonetta.rossi@villamariaregina.com,63629071,www.villamariaregina.com,15
517,Hotel Villa Morgagni,Via Giovanni Battista Morgagni,25,41.9101061,12.5110751,4,60,33,6,27,,info@villamorgagni.it,644202190,www.villamorgagni.it,2
518,Hotel Villa Pamphili,Via della Nocetta,105,41.882153,12.4322369,4,470,235,,235,,residentmanager@hotelvillapamphiliroma.com,640064500,https://www.hotelvillapamphiliroma.com/,12
519,Hotel Villa Pirandello,Via Antonio Bosio,15 B,41.9164443,12.5146115,3,20,14,8,6,,info@villapirandello.it,64403880,,2
520,Hotel Villa Zaccardi,Circonvallazione Gianicolense,226,41.8727949,12.4495039,4,58,31,10,18,,info@zaccardhotels.it,3391127392,,12
521,Hotel Villafranca,Via Villafranca,9,41.9051419,12.504997,4,198,99,7,85,7,info@hotelvillafrancaroma.it,64440364,,1
522,Hotel Villarosa,Via Giovanni Prati,1,41.873054,12.4627565,3,106,53,17,20,15,amministrazione@hotelvillarosaroma.eu,65883643,www.hotelvillarosaroma.eu,12
523,Hotel Viminale,Via Cesare Balbo,31,41.8983006,12.4950987,4,81,43,7,34,2,hotelviminale@bzarhotel.it,684030333,,1
524,Hotel Vintage,Via Torre di Mezzavia,27,41.837598,12.5947685,4,240,120,,120,,vintage2018@gmail.com,694354360,www.vintagehotelrome.it,7
525,Hotel Virgilio,Via Palermo,30,41.8990496,12.4920166,3,63,42,22,19,1,info@hotelvirgilio.it,64884360,www.hotelvirgilio.it,1
526,Hotel Vite,Via della Vite,14,41.9034096,12.4799119,3,49,23,4,12,7,booking@infinityhotel.it,693579480,,1
527,Hotel Xx Settembre,Via del Macao,6,41.905882,12.4998524,3,24,15,6,9,,amministrazione@bzarhotel.it,64467215,,1
528,Hotelokapi,Via Della Penna,57,41.9095171,12.4750741,1,23,20,18,1,1,info@okapirooms.it,632609815,,1
529,I Casali OC Hotel,Via Tiburtina,1352,41.9375424,12.6198679,4,73,41,13,26,1,,,,4
530,Hotel Ibiza,Via Forlì,14,41.910669,12.515788,2,16,8,,8,,,,,2
531,Hotel Igea,Via Principe Amedeo,97,41.8979932,12.5015391,3,73,42,16,21,5,,,,1
532,Hotel Il Cantico,Via del Cottolengo,50,41.8971413,12.4484919,3,131,71,13,56,2,,,,13
533,Hotel Il Papavero,Via Castelfidardo,50,41.9065554,12.5009522,1,33,10,,3,1,,,,1
534,Hotel Isa,Via Cicerone,39,41.9068858,12.4689745,4,91,54,17,37,,,,,1
535,J Maluni City Hotel,Viale delle Provincie,103,41.90889,12.52129,4,83,42,1,41,,info@jmalunicityhotel.it,640085072,http://jmalunicityhotel.it,2
536,Jc Hotel,Via del Fosso di Acqua Acetosa Ostiense,43,41.7993831,12.479688,4,24,12,,12,,,,,9
537,Hotel Julia,Via Rasella,29,41.9024752,12.487877,3,68,33,8,18,4,,,,1
538,Hotel Katty,Via Palestro,35,41.905773,12.5030686,1,20,9,1,6,1,amministrazione@hotelkatty.it,645426337,,1
539,Hotel Kennedy,Via Filippo Turati,62,41.8985106,12.5021369,3,86,40,3,30,5,,,,1
540,Hotel Kennedy Ii,Via Filippo Turati,62,41.8985106,12.5021369,2,25,12,2,8,1,,,,1
541,Kolbe Hotel Rome,Via di San Teodoro,44,41.8901821,12.4839905,4,181,71,1,39,22,,,,1
542,Hotel Kriss,Via Treviso,37,41.9081317,12.5145424,2,25,13,1,12,,,,,2
543,Hotel Kristi,Via Collina,24,41.9081243,12.4977868,3,15,10,5,5,,,,,1
544,Hotel La Locanda Del Borgo,Via Nomentana,1330,41.9644998,12.5968211,2,22,18,14,4,,,,,4
545,Hotel La Lumiere Di Piazza Di Spagna,Via Belsiana,72,41.904922,12.4795615,3,20,10,,10,,,,,1
546,Hotel La Rosa,Via Carlo Alberto,71,41.8954367,12.5025202,1,10,5,,5,,,,,1
547,Hotel La Siesta,Via Pontina,507,41.7852189,12.4491021,1,24,16,8,8,,,,,9
548,Hotel Laurence,Via Pietro Baragiola,18,41.8487265,12.6228628,3,108,54,,54,,,,,6
549,Hotel Laurentia,Largo degli Osci,63,41.8972446,12.5136743,3,82,41,4,34,2,,,,2
550,Hotel Lazzari,Via Castelfidardo,31,41.9064508,12.5007535,1,21,13,6,6,1,,,,1
551,Le Boutique Hotel San Pietro,Via della Stazione Vaticana,1,41.9002333,12.4532594,4,16,9,2,7,,info@elleboutiquehotel.it,645434591,,13
552,Hotel Le Clarisse,Via dell'Arco della Ciambella,19,41.8968455,12.4769666,3,24,11,,9,2,,,,1
553,Hotel Le Petit,Via Torino,122,41.9017401,12.4957707,3,23,11,1,8,2,info@hotellepetit.com,3888558521,,1
554,Hotel Licia,Via Principe Amedeo,76,41.898959,12.5002938,1,25,11,2,6,1,,,,1
555,Hotel Lilium,Via Venti Settembre,58,41.9076104,12.4986381,3,27,14,2,11,1,liliumhotel@gmail.com,64741133,https://www.liliumhotel.it/it/,1
556,Hotel Living Room,Via Solferino,9,41.903514,12.5015055,2,23,9,1,2,6,,,,1
557,Hotel Lodi,Via Oristano,14,41.8860753,12.5228343,2,25,10,,5,5,,,,7
558,Loly Boutique Hotel Roma,Via Emilio Morosini,17,41.886047,12.4683786,4,58,29,,29,,info@lolyhotel.com,686798001,www.lolyhotel.com,1
559,Hotel Lucy,Via Magenta,13,41.9033759,12.5024959,1,13,7,4,,3,,,,1
560,Hotel Ludovisi Palace,Via Ludovisi,43,41.9070262,12.4882337,4,116,55,5,44,1,info@ludovisipalacehotel.com,642020396,,1
561,Lumi Hotel,Via Principe Amedeo,67,41.8988202,12.5000552,1,22,10,1,7,1,info@fghotel.it,647824096,https://www.hotelflowergardenrome.com/,1
562,Hotel Major Aventinus,Via di Sant'Anselmo,10,41.8818073,12.4798006,1,41,29,19,8,2,,,,1
563,Mangili Garden Hotel,Via Giuseppe Mangili,31,41.9203945,12.4812949,3,23,11,,10,1,gardenmangilihotel@gmail.com,645597297,www.hotelgardenroma.it,2
564,Hotel Manzoni,Via Balilla,1,41.893328,12.5114525,2,20,13,6,7,,,,,1
565,Hotel Marc'aurelio,Via Gregorio XI,135,41.8997175,12.4197243,4,242,121,,121,,,,,13
566,Hotel Marco Polo,Via Magenta,39,41.902297,12.5038605,3,62,27,1,19,5,info@hotelmarcopoloroma.it,64474091,www.hotelmarcopoloroma.it,1
567,Hotel Marechiaro,Via Gioberti,30,41.8988934,12.500825,2,47,18,1,5,12,info@hotelmarechiaro.com,64465367,www.hotelmarechiaro.com,1
568,Hotel Marghera,Via Marghera,29,41.9025276,12.5038521,3,58,25,3,14,5,,,,1
569,Hotel Mari 2,Via Calatafimi,38,41.9051479,12.5002325,1,36,19,2,17,,,,,1
570,Hotel Mariano,Piazza Manfredo Fanti,19,41.8975209,12.503142,3,78,33,5,11,17,,,,1
571,Marini Park Hotel,Via di Castel di Leva,258,41.7879931,12.5162246,3,124,53,8,33,,,,,9
572,Martino Ai Monti,Via Domenichino,7,41.8954717,12.4990722,1,13,7,2,4,1,,,,1
573,Martis Palace Hotel,Via San Giuseppe Calasanzio,1,41.897072,12.4736407,4,52,26,4,20,,alessandro.montaldo@hotellunetta.com,63218368,,1
574,Martius Private Suites Hotel,Via Degli Uffici Del Vicario,49,41.9010781,12.4768285,4,49,19,,12,3,amministrazione@martiusprivatesuites.com,3486056626,,1
575,Mas Boutique Hotel Rome,Via del Corso,504,41.9083236,12.4772484,3,16,7,2,2,2,citylifesrl@pec.it,3286038194,,1
576,Massimi City Garden Hotel,Largo Vincenzo Ambrosio,9,41.9255712,12.4418585,4,119,79,39,40,,info@massimicitygarden.com,640075792,www.massimicitygarden.com,14
577,Master Trevi Hotel,Via In Arcione,98,41.9016574,12.4851737,4,76,20,,,20,info@stay-master.com,694802445,,1
578,Mecenate Palace Hotel,Via Carlo Alberto,3,41.8967974,12.4999125,4,127,61,6,44,11,,,,1
579,Hotel Meeting,Via Lucio Mariani,52,41.8225563,12.5825966,3,97,44,7,23,12,,,,7
580,Hotel Melting Pot Rome,Via Luigi Pianciani,17,41.8929908,12.5085519,2,22,10,2,5,2,daniele.fraioli@gmail.com,3398139195,,1
581,Hotel Meridiana,Via Calatafimi,38,41.9051479,12.5002325,2,24,12,1,10,1,,,,1
582,Mf Hotel,Via Savoia,44,41.9129162,12.4990493,3,22,15,8,7,,info@mfhotel.it,685357656,www.mfhotel.it,2
583,Hotel Miami,Via Nazionale,230,41.9010294,12.4932468,3,76,41,8,31,2,,,,1
584,Mihotel Home,Lungotevere Michelangelo,9,41.9132973,12.4695532,3,40,9,,7,2,info@cfromerooms.com,3318066295,www.cfromerooms.com,1
585,Hotel Milazzo,Via Milazzo,3,41.9016206,12.5043058,2,21,11,1,10,,,,,1
586,Hotel Milo,Via Principe Amedeo,76,41.898959,12.5002938,3,55,28,7,16,4,,,,1
587,Hotel Milton Roma,Via Emanuele Filiberto,155,41.8905399,12.5063996,4,152,92,36,52,4,,,,1
588,Hotel Mon Repos,Via della Stazione di Cesano,330,42.0622864,12.3269954,2,25,17,9,8,,,,,15
589,Hotel Monterosa,Via Alfredo Cappellini,46,41.8975347,12.5048211,1,8,4,1,2,1,,,,1
590,Monti 66 Hotel,Via Nazionale,66,41.899339,12.491388,2,20,10,3,4,3,iolematilde@gmail.com,3332461025,,1
591,Monti Palace Hotel,Via Cavour,185,41.8954262,12.4938437,4,132,55,11,22,15,account@montipalacehotel.com,6480231,,1
592,Hotel Moscatello,Via Principe Eugenio,51,41.8937372,12.5076691,1,33,14,,9,5,,,,1
593,Hotel Myosotis,Piazza Pupinia,2,41.861836,12.6413177,4,24,,,,,,,,6
594,Mytale Creative Academy Hotel,Piazza degli Zingari,4,41.895673,12.4929482,4,30,9,,3,3,hm@mytalerome.com,3490695925,www.mytalerome.com,1
595,Mz Hotel,Via della Trinità dei Pellegrini,12,41.8930052,12.4724473,3,30,15,,15,,info@colonnasuite.com,669208008,,1
596,Hotel Napoleon,Piazza Vittorio Emanuele II,105,41.8938068,12.5039149,4,153,74,11,47,16,infobook@napoleon.it,64467264,https://www.napoleon.it/,1
597,Hotel Nardizzi Americana,Via Firenze,38,41.9033814,12.4929939,2,52,27,2,22,3,,,,1
598,Hotel Nautilus,Via Germanico,198,41.9091417,12.463005,3,23,11,2,6,3,info@hotelnautilusroma.com,63242118,www.hotelnautilusroma.com,1
599,Navona Colors Hotel,Via dell'Orso,38,41.9019028,12.4738199,3,42,18,,13,4,,,,1
600,Navona Essence Hotel,Via dei Cappellari,24,41.8960738,12.4709084,3,15,7,,6,1,booking@navonaessencehotel.it,687605186,www.navonaessencehotel.it,1
601,Navona Street Hotel,Via Giovanni Giraud,53,41.8995347,12.4673475,3,13,8,3,5,,fabiana.sollecchia@gmail.com,3357108009,,1
602,Navona Theatre Hotel,Vicolo dei Granari,3,41.8984296,12.4717146,3,25,11,,8,3,,,,1
603,Hotel Nerva,Via Tor de' Conti,3,41.8946574,12.4871212,3,35,19,6,11,1,,,,1
604,Hotel New Angel In Rome,Via Marianna Dionigi,43,41.9059535,12.4715743,1,17,9,1,8,,,,,1
605,Hotel New York,Via Magenta,13,41.9033759,12.5024959,1,19,11,6,2,3,,,,1
606,Hotel Nicholas,Via del Torraccio,223,41.8531329,12.6513915,1,13,6,1,4,,,,,6
607,Hotel Nizza,Via D'Azeglio,16,41.9003779,12.4981159,3,175,66,4,31,15,,,,1
608,Nova Domus Hotel,Via Girolamo Savonarola,38,41.9120537,12.4506927,1,100,57,19,35,1,claudio@novadomushotel.it,6399511,,1
609,Hotel Novecento,Via Carlo Emanuele I,12,41.8911342,12.5095257,3,43,23,3,20,,,,,1
610,Hotel Oceania,Via Firenze,38,41.9033814,12.4929939,2,23,9,1,2,6,,,,1
611,Hotel Octavia,Via Giovanni Gaetano Bottari,38,41.9602281,12.413477,3,25,17,9,8,,,,,14
612,Oly Hotel,Via del Santuario Regina degli Apostoli,36,41.851744,12.4826655,4,198,103,8,95,,booking@bvolyhotel.com - info@bvolyhotel.com,6594441,https://www.bvolyhotel.com//,8
613,Orange Hotel,Via Crescenzio,86,41.9061738,12.4598486,4,55,28,4,21,3,info@orangehotelrome.com,66868969,www.orangehotelrome.com,1
614,Hotel Orlanda,Via Principe Amedeo,76,41.898959,12.5002938,2,17,9,1,8,,,,,1
615,Hotel Orto Di Roma,Via di Grotta Perfetta,551,41.8371151,12.5104219,3,71,46,21,25,,hotelpalmieri@gmail.com,65042224,www.borgopalmieri.com,8
616,Osimar Hotel,Via Felice Grossi Gondi,87,41.9202895,12.5252542,3,50,27,5,21,1,,,,2
617,Ostia Antica Park Hotel,Viale dei Romagnoli,1041 A,41.7665665,12.3152062,3,148,80,15,63,1,info@ostiaanticaparkhotel.it,65652089,www.ostiaanticaparkhotel.it,10
618,Otivm Hotel,Via D'Aracoeli,11:00 AM,41.8947913,12.4803213,4,46,20,,14,6,info@hotiumhotel.eu,640410547,,1
619,Hotel Ottaviano,Via Ottaviano,6,41.9067193,12.4579658,3,22,7,,2,2,,,,1
620,Paba Hotel,Via Cavour,266,41.8937547,12.4901272,2,20,7,,2,4,info@hotelpaba.com,647824497,,1
621,Hotel Pacific,Viale delle Medaglie d'Oro,51,41.9105451,12.4460738,3,129,82,37,43,2,info@hotelpacificroma.com,639732085,https://www.hotelpacificroma.com/,1
622,Palazzo Navona Hotel,Via del Melone,16,41.8976218,12.4744782,4,100,43,1,30,9,fom.palazzonavona.ext@enpam.it,681152341,,1
623,Palazzo Venere Hotel,Via Laurina,34,41.9086495,12.4778487,4,26,12,2,6,4,info@palazzovenere.com,6874030890,www.palazzovenere.com,1
624,Palladium Palace,Via Gioberti,36,41.8985219,12.5005422,4,221,80,6,15,52,,,,1
625,Palm Gallery Hotel,Via delle Alpi,15 D,41.9164778,12.5077708,3,20,9,,7,2,info@palmgalleryhotel.com,3.91E+11,www.palmgalleryhotel.com,2
626,Hotel Panda,Via della Croce,35,41.9061052,12.4795234,2,40,28,18,8,2,,,,1
627,Papillo Hotel & Resort,Via Arola,53,41.9319544,12.381497,4,169,82,,77,5,ricevimento@papillohotel.it,692043935,www.papillohotel.it,14
628,Park Hotel Cervara,Via di Tor Cervara,126,41.9226825,12.5880998,4,33,19,6,12,1,,,,4
629,Parlamento Boutique Hotel,Via delle Convertite,5,41.9026128,12.4800186,3,41,19,,16,3,hotelparlamento@libero.it,669921000,http://www.hotelparlamento.it/,1
630,Parrasio Hotel,Salita del Bosco Parrasio,9,41.8895068,12.4656186,3,14,7,,7,,info@parrasiohotel.com,687770139,,1
631,Pax  Hotel,Via di Campo Marzio,12,41.9021247,12.4773586,4,24,17,10,7,,segreteria.arbela@gmail.com,3279283635,,1
632,Hotel Philia,Via Palestro,88,41.9033809,12.5065237,3,100,48,8,31,6,info@hotelphilia.it,64469026,www.hotelphilia.it,1
633,Piazza Di Spagna,Via Mario De Fiori,61,41.9061687,12.4809534,3,50,20,1,9,9,,,,1
634,Piazza Di Spagna Suite De Charme,Via di San Sebastianello,8,41.9070209,12.4824857,1,15,7,,6,1,mariavittoria.mazzucchiello@gmail.com,3331375481,,1
635,Piemonte,Via Vicenza,32,41.9034185,12.5032117,3,57,34,11,23,,,,,1
636,Pinaco Hotel,Via Barberini,50,41.9045684,12.4919999,2,21,10,1,8,,info@pinacohotel.it,3921688236,,1
637,Pinewood hotel rome,Via Della Pineta Sacchetti,41,41.908251,12.425133,4,197,80,6,42,21,aiga@legalmail.it,639746823,,13
638,Hotel Plaza,Via del Corso,126,41.9051743,12.4787578,5,492,198,12,98,71,,,,1
639,Hotel Portoghesi,Via dei Portoghesi,1,41.9017904,12.4743516,3,39,25,13,10,2,,,,1
640,Prassede Palace Hotel,Via Merulana,282,41.8965101,12.4992337,4,21,13,6,6,1,prassedesrl@legalmail.it,3387517270,,1
641,Hotel Prati,Via Crescenzio,89,41.9058171,12.4609504,2,50,29,9,19,1,,,,1
642,Pride Hotel,Via Conte Verde,4,41.8937725,12.5061034,1,13,7,2,4,1,kodos8585@never.com,34864364000,,1
643,Princeps Boutique Hotel,Piazza dell'Esquilino,29,41.8978231,12.4969563,3,42,20,2,14,4,,,,1
644,Principe Amedeo,Via Principe Amedeo,2,41.9008928,12.497061,2,24,12,2,8,2,,,,1
645,Principe Di Piemonte,Via Giovanni Giolitti,449,41.8923752,12.5137713,3,22,18,14,4,,,,,1
646,Hotel Queen,Via San Martino della Battaglia,11,41.9053853,12.5045229,1,22,10,1,6,3,,,,1
647,Quirinale Luxury Rooms,Via Ventiquattro Maggio,51,41.897117,12.4870868,2,19,8,,6,1,info@trevipalacehotel.com,6483739,,1
648,Hotel Quisisana,Via Filippo Turati,37,41.8988006,12.5020059,2,88,36,4,13,18,,,,1
649,Radio Hotel,Via Antonio Pacinotti,8 E,41.8708936,12.4682065,2,49,29,9,20,,radiohotelroma@gmail.com,65580892,www.radiohotelroma.com,11
650,Hotel Raganelli,Via Aurelia,738,41.8922468,12.4131575,4,88,45,5,37,3,,,,13
651,Hotel Re Di Roma,Via Vercelli,21,41.8818992,12.5173819,3,82,38,1,31,5,info@hotelrediroma.com,670302501,,7
652,Hotel Regina Giovanna,Via Nazionale,230,41.9010294,12.4932468,3,23,11,2,6,3,,,,1
653,Hotel Regina Margherita,Via Bari,1,41.9107867,12.5134024,3,24,21,18,3,,antosrls2020@gmail.com,3355306873,,2
654,Hotel Relais Castrum Boccea,Via Santi Mario E Marta,27,41.9632214,12.3147165,4,63,30,7,14,8,,,,14
655,Hotel Residenza Gra 21,Via Anagnina,21,41.8387127,12.5897328,2,45,17,,12,5,,,,7
656,Residenza Piranesi Hotel.,Via Sistina,48,41.9049283,12.485198,3,62,28,2,20,4,fedroom@legalmail.it,3355758265,,1
657,Hotel Resort La Rocchetta,Via Giulio Galli,41,41.9919254,12.4005841,3,39,20,4,14,1,,,,15
658,Hotel Richmond,Largo Corrado Ricci,36,41.8931293,12.4882355,4,25,13,3,8,2,,,,1
659,Hotel Rimini,Via Marghera,17,41.9023028,12.5035963,3,90,37,4,14,18,,,,1
660,Hotel River Chateau,Via Flaminia,520,41.9394914,12.4696318,4,111,47,,33,11,,,,15
661,Hotel River Palace,Via Flaminia,31,41.9132267,12.475176,4,112,59,8,49,2,amministrazione@riverpalacehotel.it,6830011,,2
662,Hotel Rivoli,Via Torquato Taramelli,7,41.9227066,12.4831024,4,128,59,2,45,12,,,,2
663,Hotel Robinson,Via Milazzo,3,41.9016206,12.5043058,2,40,9,1,6,1,info@hotelrobinsonrome.com>,6491423,www.hotelrobinsonrome.com/,1
664,Roma Luxus Hotel,Largo Angelicum,4,41.8958578,12.4872811,5,65,28,4,15,7,romaluxushotel@gmail.com,632091281,www.romaluxushotel.com,1
665,Roma Room Hotel,Via Giovanni Battista Morgagni,41,41.9105846,12.5125279,3,51,29,8,20,1,artromahotel41@gmail.com,644260772,,2
666,Roma Trastevere,Viale di Trastevere,249,41.8763086,12.4660221,3,146,81,22,53,6,,,,12
667,romalive hotel,Via Flavia,84,41.9073287,12.4972968,1,25,15,5,10,,romalivehotel@gmail.com,68551287,,1
668,Hotel Roman's,Via Milazzo,3,41.9016206,12.5043058,1,18,10,2,8,,,,,1
669,Hotel Romantica,Via Principe Amedeo,77,41.8983611,12.5007886,2,24,14,4,10,,,,,1
670,Rome Art Boutique Hotel,Via Francesco Crispi,10,41.9031937,12.4856907,3,50,28,6,22,,info@romearthotel.com,679844142,https://www.romearthotel.com/it/,1
671,Rome Garden Hotel,Via Nomentana,28,41.9116422,12.5051008,3,71,34,7,18,8,info@romegarden.com,644252049,,2
672,Rome Love Hotel,Piazza Vittorio Emanuele II,121,41.8943398,12.5029153,1,23,11,,10,1,info@hotelromelove.com,3395958179,,1
673,Rome's Gloria Hotel,Via Germanico,198,41.9091417,12.463005,2,16,8,1,6,1,gm2014srl@gmail.com,666735426,www.romesgloriahotel.it,1
674,Romoli Hotel,Via della Caffarelletta,114,41.8697285,12.5146408,3,87,42,8,23,11,info@romolihotel.com,68411318,,7
675,Rosen Hotel,Via Flaminia Nuova,885,41.9560696,12.4827417,2,41,28,16,11,1,,,,15
676,Royal Palace Luxury Hotel,Via delle Carrozze,34,41.90605,12.4806892,4,25,17,9,8,,,,,1
677,Hotel San Francesco,Via Jacopa de' Settesoli,7,41.8849568,12.4726553,3,48,24,,24,,daniele.frontoni@gmail.com,3355253255,,1
678,Hotel San Marco,Via Villafranca,1,41.9049147,12.5052195,3,162,81,4,74,2,,,,1
679,Hotel San Silvestro,Via del Gambero,3,41.9028454,12.4804516,2,25,21,17,4,,,,,1
680,Hotel Sandra,Via Villafranca,10,41.9053337,12.5050899,1,23,9,,4,5,,,,1
681,Hotel Sandy,Via Cavour,136,41.896742,12.4957259,1,18,7,,3,4,,,,1
682,Hotel Sant'angelo,Via Marianna Dionigi,16,41.905715,12.472514,3,50,31,14,15,2,,,,1
683,Hotel Sant'anna,Borgo Pio,134,41.9039207,12.4592566,3,37,20,4,15,1,,,,1
684,Hotel Sant'anselmo,Piazza di Sant'Anselmo,2,41.88212,12.4794187,4,72,35,1,33,,info@aventinohotels.com,6570057,www.aventinohotels.com,1
685,Hotel Santa Chiara,Via di Santa Chiara,21,41.8976928,12.4769816,3,209,95,9,66,12,,,,1
686,Hotel Santa Maria,Vicolo del Piede,2,41.890178,12.4700771,3,53,19,,9,5,info@hotelsantamaria.info,65894626,,1
687,Santa Maura Hotel,Via Casilina,1038,41.8676961,12.5880998,3,56,32,8,24,,santamaurahotel@gmail.com,62674041,,6
688,Hotel Santa Prassede,Via di Santa Prassede,25,41.8962954,12.4990861,2,32,20,8,12,,,,,1
689,Hotel Saturnia,Via Ruinaglia,4,41.8977781,12.4955287,2,25,18,12,5,1,,,,1
690,Hotel Scalinata Di Spagna,Piazza della Trinità dei Monti,17,41.9056839,12.4834313,3,41,16,,8,7,,,,1
691,Scenario Hotel,Vicolo delle Ceste,26,41.897222,12.477659,3,24,12,,12,,info@hotelscenario.com,668806130,,1
692,Scheppers Hotel,Via Bogliasco,36,41.8885491,12.4006736,3,98,43,,31,12,,,,13
693,Hotel Selene,Via del Viminale,8,41.900698,12.496765,3,97,41,2,24,13,,,,1
694,Hotel Selva Candida,Via di Selva Candida,200,41.9321512,12.3780699,3,24,,,,,,,,14
695,Hotel Serena,Via Principe Amedeo,64,41.899252,12.499962,3,96,46,8,26,12,,,,1
696,Seventy Seven Hotel,Via Agostino Depretis,77,41.8990393,12.4958356,4,86,52,23,24,5,direzionemaison@gmail.com,639030146,,1
697,Hotel Siena,Via di Sant'Andrea delle Fratte,33,41.9032888,12.4830925,4,30,20,10,10,,,,,1
698,Hotel Silla,Via Silla,3,41.9093507,12.4591178,2,25,16,8,7,1,,,,1
699,Hotel Silva,Via Antonio Bosio,20 A,41.9150897,12.5144322,3,23,13,3,10,,,,,2
700,Singer Palace Hotel,Via Alessandro Specchi,10,41.8989514,12.4811345,5,58,29,,29,,welcome@singerpalace.com,3490816300,,1
701,Hotel Sisto V,Via Lardaria,10,41.926541,12.4257221,3,70,39,10,28,,,,,14
702,Hotel Sol Levante,Via Palestro,87,41.903402,12.505986,1,19,10,2,7,1,,,,1
703,Hotel Sonya,Via del Viminale,58,41.8999905,12.49558,3,25,15,5,10,,,,,1
704,Sophie Terrace Hotel,Via Principe Amedeo,6,41.9004762,12.4975672,3,42,20,,19,,alessiosiciliano@alice.it,3290206661,,1
705,St.B Boutique Hotel,Via di San Basilio,57,41.9048136,12.4896497,1,15,8,1,7,,info@stbhotel.com,683978691,,1
706,Hotel St. Moritz,Via Nazionale,51,41.8997905,12.4921268,3,44,19,2,10,6,,,,1
707,Hotel Stendhal,Via del Tritone,113,41.9034526,12.4875598,4,46,30,14,16,,,,,1
708,Hotel Stromboli,Via Marsala,34,41.9027645,12.5019548,3,94,51,17,26,7,,,,1
709,Hotel Suisse,Via Gregoriana,54,41.9044651,12.4852427,2,24,12,2,8,2,,,,1
710,Suite Sistina For Brave Lovers Hotel,Via Sistina,91,41.9051122,12.4854,3,60,27,,21,6,info@suitesistina.com,620368380,www.suitesistina.com,1
711,Tb Place Roma Hotel,Via Mario De Fiori,93,41.9039086,12.4824586,4,48,22,,20,,andrealimentani@gmail.com,3391494845,,1
712,Hotel Teatro Pace 33,Via del Teatro Pace,33,41.8987355,12.4715238,1,34,20,7,12,1,,,,1
713,Hotel Tempio Di Apollo,Piazza della Colonnetta,8,42.0196767,12.3930142,2,33,16,1,13,2,,,,15
714,Hotel Terminal,Via Principe Amedeo,103,41.8979206,12.5016026,3,89,35,5,6,24,booking@albergoterminal.com,64466867,,1
715,Terrace Pantheon Relais Hotel.,Via di Torre Argentina,18,41.8964585,12.4764196,4,70,32,3,22,5,tpr.amministrazione@gmail.com,66877992,,1
716,Tex Hotel,Via Giovanni Amendola,97,41.8993536,12.5006773,3,81,39,9,20,8,info@hoteltexroma.it,662283973,www.hoteltexroma.it,1
717,Texas Seven Hills,Via Firenze,47,41.9027673,12.4937521,2,33,18,5,11,2,,,,1
718,The B Place Hotel,Via degli Scipioni,239,41.9105512,12.4656678,3,19,9,,8,1,x3332327762@gmail.com,3332327762,,1
719,The Boutique Hotel,Via Cola di Rienzo,243,41.9074132,12.4622053,3,62,14,1,9,4,info@theboutiquehotel.it,63241854,www.theboutiquehotel.it,1
720,The Church Village,Via di Torre Rossa,94,41.8914797,12.4243137,3,451,252,53,199,,,,,13
721,The Fifteen Keys Hotel,Via Urbana,6,41.8976755,12.495531,4,25,15,5,10,,info@fifteenkeys.com,648913446,,1
722,The One Boutique Hotel & S.P.A.,Via del Traforo,133,41.9024033,12.4863792,4,24,14,7,4,3,manager@theoneboutiquehotel.com,3395412151,,1
723,The Opera Hotel,Via Nazionale,36,41.9003885,12.4929964,1,25,13,2,10,1,,,,1
724,The Radical Hotel Roma,Via Umbria,7,41.9058417,12.4927894,3,23,11,1,8,2,stay@theradicalhotel.it,698937366,www.theradicalhotel.it,1
725,The Relaxing Hotel,Via Cavour,261,41.8941843,12.4906858,2,17,7,1,2,4,marketing@therelaxinghotels.com,64815736,www.therelaxinghotels.com,1
726,The Shire Hotel,Via Vittorio Veneto,146,41.9090489,12.4882683,3,32,9,2,7,,info@theshirehotel.com,645541040,www.theshirehotel.com,1
727,The Strand Hotel,Via Tuscolana,892,41.8628842,12.5505418,3,24,18,13,4,1,thestrandhotel@hotmail.com,676969978,,7
728,Hotel Tirrenia,Lungomare Paolo Toscanelli,74,41.7290531,12.279081,3,14,9,4,5,,,,,10
729,Hotel Tirreno,Via di San Martino ai Monti,17,41.895537,12.498192,3,81,48,23,17,8,,,,1
730,Tmark Hotel Vaticano,Viale Vaticano,99,41.9065755,12.451126,4,58,24,3,11,7,sede@tmarkhotelvaticano.it,639745562,www.tmarkhotelvaticano.it,1
731,Hotel Torre Di Pratolungo,Via Gianni Nazareno,2,41.9454999,12.6068212,3,192,72,,24,48,,,,4
732,Hotel Trinita' Dei Monti,Via Sistina,91,41.9051122,12.4854,3,57,24,3,11,8,nuovohoteltrinitadeimonti@gmail.com,39066990111,www.hoteltrinitadeimonti.com,1
733,Hotel Tritone,Via del Tritone,210,41.9018413,12.4820174,3,99,43,5,24,10,,,,1
734,Hotel Tuscolana,Via Tuscolana,185,41.879907,12.5216337,3,34,19,6,11,2,,,,7
735,Twenty One Art Hotel,Via Cola di Rienzo,23,41.9092175,12.4691167,4,167,93,29,57,4,info@twentyonerome.com,632609607,http://www.twentyonehotelrome.com,1
736,Twenty One Art Hotel,Via Cola di Rienzo,23,41.9092175,12.4691167,4,167,93,29,57,4,info@twentyonerome.com,632609607,http://www.twentyonehotelrome.com,1
737,Hotel Urbana 50,Via Urbana,50,41.8956125,12.4938442,1,12,7,3,3,1,,,,1
738,Vanity Hotel Navona,Via Giuseppe Zanardelli,36,41.9015349,12.4717818,2,19,9,,8,1,vanityhotelnavona@email.it,669342848,,1
739,Hotel Ventura,Via Palestro,88,41.9033809,12.5065237,3,25,13,2,10,1,info@hotelphilia.it,64469026,www.hotelphilia.it,1
740,Hotel Villa Delle Rose,Via Vicenza,5,41.903325,12.5035665,3,66,37,8,29,,,,,1
741,Hotel Villa Duse,Via Alamanno Morelli,1,41.9293439,12.4924778,4,30,15,2,11,2,,,,2
742,Hotel Villa Giannetto,Via Roccaforte del Greco,325,41.8696211,12.6919985,1,23,12,3,7,2,,,,6
743,Hotel Villa Linneo,Via Carlo Linneo,1,41.919566,12.4826445,3,21,9,,6,3,,,,2
744,Hotel Villa Spada,Via Maria Elena Bettini,20,41.9731982,12.5067029,3,44,24,9,10,5,,,,3
745,Viminale View Hotel,Piazza del Viminale,14,41.900059,12.4943834,3,22,10,,8,2,info@viminaleviewhotel.com,64875314,,1
746,Hotel Virginia,Via Montebello,94,41.906112,12.5010718,2,16,8,1,6,1,,,,1
747,Vitti Hotel,Via Casilina,1805 P,41.8631671,12.6801888,2,22,13,4,9,,info@hotelvitti.it,3331681809,www.hotelvitti.it,6
748,Hotel Washington,Via Giovanni Amendola,77,41.8996164,12.5002273,2,25,12,2,8,1,info@hotelwashington.it,688795851,,1
749,Hotel Welrome,Via Calatafimi,15,41.9047853,12.49992,2,18,7,,4,2,,,,1
750,Hotel White,Via In Arcione,77,41.9018984,12.485622,4,78,42,13,22,7,,,,1
751,Hotel Windrose,Via Gaeta,35,41.9045189,12.5003307,3,85,52,25,21,6,,,,1
752,Hotel York Hotel,Via Cavriglia,24,41.9477767,12.515245,3,59,38,20,15,3,,,,3
