id,nome,via,civico,Latitude,Longitude,stelle,totalePostiLetto,TOTroom,2room,2room_1,3room,Email,Tel,Website,municipio,numero_rom,id_municip
57,Amico Hotel,,"15",41.8913857,12.5268446,2,66,26,3,6,17,amicohotelroma@gmail.com,67022930,www.hotelfriend.it,5,V,5
151,Domidea Hotel,,"17",41.9089752,12.5896853,4,216,85,9,48,1,info@hoteldomidea.com,697659073,,5,V,5
191,Hotel Geo,,"41",41.8901763,12.5279793,3,38,20,5,12,3,ammgeohotel@gmail.com,627801029,,5,V,5
202,Gp Hotel,,"50",41.9003614,12.5702781,4,203,86,,55,31,manager@exromast.com,642986080,,5,V,5
229,Hotel Antico Acquedotto,,"9",41.8853238,12.5306767,3,39,32,25,7,,info@hotelanticoacquedotto.it,627801410,www.hotelanticoacquedotto.it,5,V,5
255,Hotel Bright,,940 E,41.8932735,12.5977121,3,70,42,14,28,,info@hotelbright.it,645541360,,5,V,5
408,Hotel Mirti,,"101",41.881189,12.5673942,1,24,14,4,10,,info@hotelmirti.it,3939249008,,5,V,5
