id,nome,via,civico,Latitude,Longitude,stelle,totalePostiLetto,TOTroom,2room,2room_1,3room,Email,Tel,Website,municipio,numero_rom,id_municip
203,Hotel Grand Colony,,"18",41.9490538,12.472563,3,114,72,30,42,,hotelcolonyproperty@gmail.com,636301843,,15,XV,15
437,Hotel Ponte Milvio,,"23",41.9383472,12.4641562,3,46,24,3,20,1,info@hotelpontemilvio.com,633974309,https://www.hotelpontemilvio.com/,15,XV,15
516,Hotel Villa Maria Regina,,"687",41.9493587,12.4550979,4,230,115,15,85,15,leonetta.rossi@villamariaregina.com,63629071,www.villamariaregina.com,15,XV,15
588,Hotel Mon Repos,,"330",42.0622864,12.3269954,2,25,17,9,8,,,,,15,XV,15
657,Hotel Resort La Rocchetta,,"41",41.9919254,12.4005841,3,39,20,4,14,1,,,,15,XV,15
660,Hotel River Chateau,,"520",41.9394914,12.4696318,4,111,47,,33,11,,,,15,XV,15
675,Rosen Hotel,,"885",41.9560696,12.4827417,2,41,28,16,11,1,,,,15,XV,15
713,Hotel Tempio Di Apollo,,"8",42.0196767,12.3930142,2,33,16,1,13,2,,,,15,XV,15
